census_year,block_id,property_id,base_property_id,building_address,CLUE_small_area,parking_type,parking_spaces,longitude,latitude
2011,931,107427,107427,10 Brens Drive PARKVILLE 3052,Parkville,Private,341,144.94768,-37.78533
2011,931,110273,110273,Elliott Avenue PARKVILLE 3052,Parkville,Private,300,144.95163,-37.78462
2011,1004,104052,104052,672-692 Footscray Road WEST MELBOURNE 3003,West Melbourne (Industrial),Private,100,144.91094,-37.80569
2011,1101,110843,110843,163-261 Spencer Street DOCKLANDS 3008,Docklands,Commercial,583,144.95056,-37.81451
2011,1102,588807,588807,208-240 Harbour Esplanade DOCKLANDS 3008,Docklands,Private,158,144.94513,-37.81316
2011,1103,589575,589575,150-170 Harbour Esplanade DOCKLANDS 3008,Docklands,Private,144,144.94594,-37.81581
2011,1105,588061,588061,8-18 McCrae Street DOCKLANDS 3008,Docklands,Residential,189,144.95076,-37.82151
2011,1108,106983,106983,847 Bourke Street DOCKLANDS 3008,Docklands,Commercial,420,144.93933,-37.82041
2011,1109,560001,560001,16-32 Rakaia Way DOCKLANDS 3008,Docklands,Residential,250,144.94124,-37.8146
2011,1109,573327,573327,37-43 Caravel Lane DOCKLANDS 3008,Docklands,Residential,250,144.94067,-37.81492
2011,1109,584058,584058,349-369 Docklands Drive DOCKLANDS 3008,Docklands,Commercial,250,,
2011,1110,580075,580075,476-478 Docklands Drive DOCKLANDS 3008,Docklands,Private,350,144.93565,-37.81382
2011,1110,593738,593738,331-381 Footscray Road DOCKLANDS 3008,Docklands,Private,550,144.93723,-37.81076
2011,1112,103980,103980,40-66 Siddeley Street DOCKLANDS 3005,Docklands,Residential,291,144.95248,-37.82288
2011,2386,616163,616161,12 Sutton Street NORTH MELBOURNE 3051,North Melbourne,Residential,199,144.94095,-37.79163
2011,2547,615601,615601,352-400 Macaulay Road KENSINGTON 3031,Kensington,Private,101,144.93373,-37.79424
2012,6,578328,573333,2 Swanston Street MELBOURNE 3000,Melbourne (CBD),Commercial,450,144.96994,-37.81778
2012,11,103987,103987,550-554 Flinders Street MELBOURNE 3000,Melbourne (CBD),Residential,152,144.95597,-37.8204
2012,12,103997,103997,472-482 Flinders Street MELBOURNE 3000,Melbourne (CBD),Commercial,330,144.95827,-37.81973
2012,13,104002,104002,376-388 Flinders Street MELBOURNE 3000,Melbourne (CBD),Commercial,315,144.96155,-37.81884
2012,17,103592,103592,11-37 Exhibition Street MELBOURNE 3000,Melbourne (CBD),Private,131,144.97173,-37.81546
2012,18,111072,111072,32-44 Flinders Street MELBOURNE 3000,Melbourne (CBD),Commercial,532,144.97319,-37.81539
2012,22,102102,102102,471-485 Collins Street MELBOURNE 3000,Melbourne (CBD),Commercial,598,144.95855,-37.81842
2012,24,102089,102089,327-343 Collins Street MELBOURNE 3000,Melbourne (CBD),Commercial,423,144.96327,-37.81705
2012,24,102092,102092,359-373 Collins Street MELBOURNE 3000,Melbourne (CBD),Commercial,265,144.96244,-37.81728
2012,26,102073,102073,141-165 Collins Street MELBOURNE 3000,Melbourne (CBD),Commercial,350,144.96876,-37.81545
2012,26,109418,109418,199-209 Collins Street MELBOURNE 3000,Melbourne (CBD),Commercial,348,144.96743,-37.81581
2012,31,108968,108968,613-639 Little Collins Street MELBOURNE 3000,Melbourne (CBD),Commercial,300,144.95436,-37.81818
2012,32,102115,102115,522-534 Collins Street MELBOURNE 3000,Melbourne (CBD),Private,350,144.95681,-37.8177
2012,37,102155,102155,106-120 Collins Street MELBOURNE 3000,Melbourne (CBD),Commercial,327,144.96932,-37.814
2012,37,102157,102157,90-98 Collins Street MELBOURNE 3000,Melbourne (CBD),Private,118,144.97029,-37.81402
2012,46,105963,105963,196-212 Little Collins Street MELBOURNE 3000,Melbourne (CBD),Commercial,109,144.96715,-37.8139
2012,47,625840,103597,111-129 Exhibition Street MELBOURNE 3000,Melbourne (CBD),Commercial,398,144.97011,-37.81281
2012,51,566659,566659,182-200 Spencer Street MELBOURNE 3000,Melbourne (CBD),Residential,367,144.9533,-37.81625
2012,53,101176,101176,494-512 Bourke Street MELBOURNE 3000,Melbourne (CBD),Private,342,144.95877,-37.81494
2012,64,108102,108102,200-222 Queen Street MELBOURNE 3000,Melbourne (CBD),Commercial,427,144.96047,-37.81346
2012,66,105693,105693,217-231 Lonsdale Street MELBOURNE 3000,Melbourne (CBD),Commercial,390,144.96587,-37.8118
2012,68,103620,103620,196-226 Exhibition Street MELBOURNE 3000,Melbourne (CBD),Commercial,249,144.97048,-37.81047
2012,71,108962,108962,244-276 Spencer Street MELBOURNE 3000,Melbourne (CBD),Commercial,173,144.95296,-37.81438
2012,74,105741,105741,374-380 Lonsdale Street MELBOURNE 3000,Melbourne (CBD),Commercial,460,144.96112,-37.81202
2012,76,587670,105749,180 Lonsdale Street MELBOURNE 3000,Melbourne (CBD),Private,132,144.96573,-37.81068
2012,76,587736,105749,22-24 Jane Bell Lane MELBOURNE 3000,Melbourne (CBD),Residential,114,144.96573,-37.81068
2012,77,110710,110709,150 Lonsdale Street MELBOURNE 3000,Melbourne (CBD),Commercial,650,144.96757,-37.81013
2012,78,110713,580090,2 Lonsdale Street MELBOURNE 3000,Melbourne (CBD),Private,185,144.97141,-37.80904
2012,81,561698,105462,550 Little Lonsdale Street MELBOURNE 3000,Melbourne (CBD),Private,400,144.9527,-37.81331
2012,81,106029,106029,536-548 Little Lonsdale Street MELBOURNE 3000,Melbourne (CBD),Residential,135,144.95324,-37.8136
2012,83,105456,105456,299-319 Queen Street MELBOURNE 3000,Melbourne (CBD),Residential,140,144.95866,-37.81145
2012,83,105457,105457,371-389 La Trobe Street MELBOURNE 3000,Melbourne (CBD),Commercial,447,144.95814,-37.81164
2012,83,110757,110142,280-318 William Street MELBOURNE 3000,Melbourne (CBD),Commercial,200,144.95736,-37.81209
2012,85,105746,105746,183-265 La Trobe Street MELBOURNE 3000,Melbourne (CBD),Commercial,722,144.96284,-37.8109
2012,88,110650,105437,28 Little Lonsdale Street MELBOURNE 3000,Melbourne (CBD),Residential,234,144.97042,-37.80826
2012,88,105438,105438,288-326 Exhibition Street MELBOURNE 3000,Melbourne (CBD),Private,100,144.96966,-37.80849
2012,95,500323,500323,19-37 A'Beckett Street MELBOURNE 3000,Melbourne (CBD),Residential,140,144.96261,-37.80894
2012,115,110747,110747,499-511 Swanston Street MELBOURNE 3000,Melbourne (CBD),Private,156,144.96192,-37.80693
2012,115,604779,587480,8 Franklin Street MELBOURNE 3000,Melbourne (CBD),Private,546,144.96209,-37.80729
2012,131,103977,111287,633-669 Flinders Street DOCKLANDS 3005,Docklands,Private,354,144.95378,-37.82258
2012,205,104469,104469,114-152 Grattan Street CARLTON 3053,Carlton,Private,460,144.96489,-37.79994
2012,217,106193,106193,368-386 Lygon Street CARLTON 3053,Carlton,Commercial,154,144.96815,-37.79804
2012,241,573377,573377,220 Berkeley Street CARLTON 3053,Carlton,Commercial,1136,144.9607,-37.80025
2012,250,623345,108266,11 Nicholson Street CARLTON 3053,Carlton,Commercial,848,144.97163,-37.80397
2012,265,109845,109845,110-120 Victoria Street CARLTON 3053,Carlton,Commercial,465,144.96393,-37.80606
2012,274,107697,107696,Royal Parade CARLTON NORTH 3054,Carlton,Private,140,144.96153,-37.78498
2012,319,106336,106336,98-166 Macaulay Road NORTH MELBOURNE 3051,North Melbourne,Private,141,144.94203,-37.79716
2012,375,101095,101095,14-20 Blackwood Street NORTH MELBOURNE 3051,North Melbourne,Commercial,356,144.95516,-37.80175
2012,440,102960,102960,104-124 Dudley Street WEST MELBOURNE 3003,West Melbourne (Residential),Residential,154,144.95127,-37.80925
2012,502,105221,105221,133-165 Kensington Road WEST MELBOURNE 3003,West Melbourne (Industrial),Private,160,144.9192,-37.79962
2012,570,108810,108810,428-550 Epsom Road FLEMINGTON 3031,Kensington,Private,6000,144.9127,-37.78907
2012,571,103389,103389,276-318 Epsom Road FLEMINGTON 3032,Kensington,Private,2000,144.91158,-37.78218
2012,651,557129,101779,10 St Andrews Place EAST MELBOURNE 3002,East Melbourne,Private,146,144.9774,-37.81152
2012,659,614000,100847,Batman Avenue MELBOURNE 3004,Melbourne (Remainder),Private,200,144.97904,-37.82134
2012,720,108626,108626,409-413 St Kilda Road MELBOURNE 3004,Melbourne (Remainder),Private,126,144.9769,-37.83736
2012,729,110346,110346,73-79 Whiteman Street SOUTHBANK 3006,Southbank,Residential,226,144.95635,-37.82664
2012,729,110486,110486,61-67 Whiteman Street SOUTHBANK 3006,Southbank,Residential,345,144.95685,-37.82606
2012,736,110408,110408,93-119 Kavanagh Street SOUTHBANK 3006,Southbank,Commercial,700,144.96358,-37.8257
2012,738,110620,110620,102-118 Sturt Street SOUTHBANK 3006,Southbank,Commercial,200,144.96644,-37.82418
2012,748,108658,108658,312-318 St Kilda Road SOUTHBANK 3006,Southbank,Commercial,240,144.97069,-37.82909
2012,753,110323,110380,1 Southgate Avenue SOUTHBANK 3006,Southbank,Private,100,144.9663,-37.82072
2012,753,110379,110380,40 City Road SOUTHBANK 3006,Southbank,Private,257,144.9663,-37.82072
2012,753,110608,110608,28-32 Southgate Avenue SOUTHBANK 3006,Southbank,Residential,108,144.96747,-37.82067
2012,759,108635,108635,459-465 St Kilda Road MELBOURNE 3004,Melbourne (Remainder),Residential,108,144.97815,-37.8408
2012,760,108638,108638,477-479 St Kilda Road MELBOURNE 3004,Melbourne (Remainder),Private,204,144.97856,-37.84188
2012,760,108644,108644,509-515 St Kilda Road MELBOURNE 3004,Melbourne (Remainder),Private,342,144.97936,-37.8441
2012,773,560261,560261,50-56 Lorimer Street DOCKLANDS 3008,Docklands,Residential,250,144.94748,-37.82484
2012,774,110860,110860,351-387 Ingles Street PORT MELBOURNE 3207,Port Melbourne,Private,172,144.93339,-37.82323
2012,774,611377,611377,161-189 Turner Street PORT MELBOURNE 3207,Port Melbourne,Private,109,144.93204,-37.82353
2012,775,110525,110525,850-868 Lorimer Street PORT MELBOURNE 3207,Port Melbourne,Private,251,144.93468,-37.82304
2012,778,564808,564808,329-349 Ingles Street PORT MELBOURNE 3207,Port Melbourne,Private,226,144.9347,-37.82496
2012,779,110587,110587,2-46 Douglas Street PORT MELBOURNE 3207,Port Melbourne,Private,311,144.9257,-37.82602
2012,781,110596,110596,272-310 Salmon Street PORT MELBOURNE 3207,Port Melbourne,Private,118,144.92172,-37.82182
2012,782,110519,110519,768-798 Lorimer Street PORT MELBOURNE 3207,Port Melbourne,Private,220,144.92887,-37.82258
2012,784,600461,110597,12 Central Boulevard FISHERMANS BEND 3207,Port Melbourne,Private,107,144.91884,-37.82228
2012,786,110575,110575,1-31 Cook Street FISHERMANS BEND 3207,Port Melbourne,Private,350,144.91338,-37.8309
2012,789,110577,110577,127-169 Todd Road FISHERMANS BEND 3207,Port Melbourne,Private,260,144.91016,-37.8282
2012,790,597228,597228,11-25 Wirraway Drive FISHERMANS BEND 3207,Port Melbourne,Private,184,144.90991,-37.82554
2012,801,110325,110325,2 Riverside Quay SOUTHBANK 3006,Southbank,Commercial,560,144.96328,-37.82132
2012,802,575820,575820,1-9 Freshwater Place SOUTHBANK 3006,Southbank,Commercial,270,144.96218,-37.82172
2012,802,613006,613006,28 Freshwater Place SOUTHBANK 3006,Southbank,Commercial,247,144.96229,-37.82267
2012,804,623557,110484,2 Clarendon Street SOUTH WHARF 3006,Southbank,Commercial,1696,144.95232,-37.82543
2012,804,630299,110484,20 Convention Centre Place SOUTH WHARF 3006,Southbank,Private,296,144.95232,-37.82543
2012,810,576747,576747,94-108 Kavanagh Street SOUTHBANK 3006,Southbank,Residential,267,144.96254,-37.82513
2012,811,111372,111372,88-98 Southbank Boulevard SOUTHBANK 3006,Southbank,Residential,190,144.96445,-37.82347
2012,812,110415,110415,12-16 Kavanagh Street SOUTHBANK 3006,Southbank,Residential,170,144.96626,-37.82261
2012,813,110411,110411,2-6 Kavanagh Street SOUTHBANK 3006,Southbank,Commercial,436,144.96736,-37.82197
2012,860,102508,102508,191-201 Domain Road SOUTH YARRA 3141,South Yarra,Residential,107,144.98292,-37.83447
2012,863,108616,108616,321-369 St Kilda Road MELBOURNE 3004,Melbourne (Remainder),Private,200,144.97655,-37.83405
2012,920,104437,104437,300-328 Grattan Street PARKVILLE 3050,Parkville,Commercial,909,144.95634,-37.79863
2012,929,107424,107424,866-934 Park Street PARKVILLE 3052,Parkville,Private,133,144.94505,-37.77749
2012,929,110950,110950,34-56 Poplar Road PARKVILLE 3052,Parkville,Private,298,144.9479,-37.77803
2012,931,103908,103908,48-50 Flemington Road PARKVILLE 3052,Parkville,Commercial,2000,144.95021,-37.79355
2012,931,107427,107427,10 Brens Drive PARKVILLE 3052,Parkville,Private,341,144.94768,-37.78533
2012,1006,102993,102993,71-385 Dynon Road WEST MELBOURNE 3003,West Melbourne (Industrial),Private,132,144.92405,-37.8035
2012,1007,107575,107575,2 Phillipps Road WEST MELBOURNE 3003,West Melbourne (Industrial),Private,197,144.91932,-37.81381
2012,1101,110843,110843,163-261 Spencer Street DOCKLANDS 3008,Docklands,Commercial,583,144.95056,-37.81451
2012,1102,609314,609314,194-206 Harbour Esplanade DOCKLANDS 3008,Docklands,Private,125,144.94494,-37.81399
2012,1102,611576,611576,1010 La Trobe Street DOCKLANDS 3008,Docklands,Private,103,144.94538,-37.81455
2012,1103,558180,558180,122-148 Harbour Esplanade DOCKLANDS 3008,Docklands,Commercial,2500,144.94756,-37.81674
2012,1103,598612,573403,100-108 Harbour Esplanade DOCKLANDS 3008,Docklands,Residential,448,144.94735,-37.81813
2012,1104,598658,576023,2-24 Waterview Walk DOCKLANDS 3008,Docklands,Commercial,113,144.94799,-37.81938
2012,1104,598658,576023,2-24 Waterview Walk DOCKLANDS 3008,Docklands,Private,331,144.94799,-37.81938
2012,1105,578096,578096,715-727 Bourke Street DOCKLANDS 3008,Docklands,Private,171,144.95025,-37.81866
2012,1105,588061,588061,8-18 McCrae Street DOCKLANDS 3008,Docklands,Residential,189,144.95076,-37.82151
2012,1105,598590,598590,720-750 Collins Street DOCKLANDS 3008,Docklands,Commercial,430,144.94933,-37.82
2012,1108,106983,106983,839 Collins Street DOCKLANDS 3008,Docklands,Commercial,420,144.93979,-37.82045
2012,1108,613252,613252,790-814 Collins Street DOCKLANDS 3008,Docklands,Private,223,144.94583,-37.82104
2012,1108,632511,632511,847-869 Bourke Street DOCKLANDS 3008,Docklands,Private,156,144.94232,-37.8206
2012,1109,573207,560004,15 Caravel Lane DOCKLANDS 3008,Docklands,Residential,150,144.94217,-37.81436
2012,1109,601815,601815,397-407 Docklands Drive DOCKLANDS 3008,Docklands,Commercial,387,144.94021,-37.81429
2012,1110,620308,593737,432-446 Docklands Drive DOCKLANDS 3008,Docklands,Residential,163,144.93785,-37.81338
2012,1110,620312,593737,23-37 Star Crescent DOCKLANDS 3008,Docklands,Commercial,718,144.93785,-37.81338
2012,1110,608355,608355,364-378 Docklands Drive DOCKLANDS 3008,Docklands,Commercial,144,144.94187,-37.81286
2012,1110,618853,618853,396-416 Docklands Drive DOCKLANDS 3008,Docklands,Commercial,286,144.94005,-37.81333
2012,2383,616843,616843,87-105 Racecourse Road NORTH MELBOURNE 3051,North Melbourne,Private,226,144.93888,-37.78982
2013,11,103987,103987,550-554 Flinders Street MELBOURNE 3000,Melbourne (CBD),Residential,152,144.95597,-37.8204
2013,12,103999,103999,1-13 William Street MELBOURNE 3000,Melbourne (CBD),Private,121,144.95951,-37.81943
2013,13,104002,104002,376-388 Flinders Street MELBOURNE 3000,Melbourne (CBD),Commercial,315,144.96155,-37.81884
2013,13,108060,108060,19-35 Queen Street MELBOURNE 3000,Melbourne (CBD),Private,172,144.96178,-37.81823
2013,14,101099,101099,16-26 Bond Street MELBOURNE 3000,Melbourne (CBD),Commercial,461,144.96306,-37.81815
2013,17,103592,103592,11-37 Exhibition Street MELBOURNE 3000,Melbourne (CBD),Commercial,200,144.97173,-37.81546
2013,17,103592,103592,11-37 Exhibition Street MELBOURNE 3000,Melbourne (CBD),Private,131,144.97173,-37.81546
2013,18,108977,108977,25-31 Spring Street MELBOURNE 3000,Melbourne (CBD),Residential,111,144.9741,-37.81455
2013,22,102102,102102,471-485 Collins Street MELBOURNE 3000,Melbourne (CBD),Commercial,598,144.95855,-37.81842
2013,23,102100,102100,433-455 Collins Street MELBOURNE 3000,Melbourne (CBD),Commercial,281,144.95988,-37.81798
2013,24,102092,102092,359-373 Collins Street MELBOURNE 3000,Melbourne (CBD),Commercial,265,144.96244,-37.81728
2013,27,597183,102071,121-131 Collins Street MELBOURNE 3000,Melbourne (CBD),Commercial,620,144.96981,-37.81512
2013,37,102161,102161,80 Collins Street MELBOURNE 3000,Melbourne (CBD),Commercial,220,144.97069,-37.81364
2013,43,101154,101154,483-501 Bourke Street MELBOURNE 3000,Melbourne (CBD),Private,431,144.95958,-37.81589
2013,44,101147,101147,393-403 Bourke Street MELBOURNE 3000,Melbourne (CBD),Commercial,192,144.9622,-37.81514
2013,47,625840,103597,111-129 Bourke Street MELBOURNE 3000,Melbourne (CBD),Private,549,144.97011,-37.81281
2013,54,101187,101187,392-406 Bourke Street MELBOURNE 3000,Melbourne (CBD),Commercial,308,144.96174,-37.81422
2013,58,103621,103621,174-192 Exhibition Street MELBOURNE 3000,Melbourne (CBD),Commercial,150,144.9706,-37.81122
2013,61,105718,105718,617-649 Lonsdale Street MELBOURNE 3000,Melbourne (CBD),Residential,296,144.9536,-37.81542
2013,62,105862,105862,542-546 Little Bourke Street MELBOURNE 3000,Melbourne (CBD),Commercial,373,144.9564,-37.8148
2013,64,108102,108102,200-222 Queen Street MELBOURNE 3000,Melbourne (CBD),Commercial,427,144.96047,-37.81346
2013,65,103312,103312,222-260 Elizabeth Street MELBOURNE 3000,Melbourne (CBD),Commercial,205,144.96289,-37.8127
2013,67,108582,108582,210-222 Russell Street MELBOURNE 3000,Melbourne (CBD),Commercial,445,144.96796,-37.81134
2013,68,103620,103620,196-226 Exhibition Street MELBOURNE 3000,Melbourne (CBD),Private,230,,
2013,71,108962,108962,244-276 Spencer Street MELBOURNE 3000,Melbourne (CBD),Commercial,173,144.95296,-37.81438
2013,72,110708,110707,535 Little Lonsdale Street MELBOURNE 3000,Melbourne (CBD),Commercial,800,144.956,-37.81346
2013,73,559301,559301,458-468 Lonsdale Street MELBOURNE 3000,Melbourne (CBD),Commercial,294,144.95835,-37.81306
2013,78,603923,580091,32-54 Lonsdale Street MELBOURNE 3000,Melbourne (CBD),Private,300,144.97073,-37.8092
2013,82,105460,105460,479-495 La Trobe Street MELBOURNE 3000,Melbourne (CBD),Commercial,208,144.95492,-37.81271
2013,85,105746,105746,183-265 La Trobe Street MELBOURNE 3000,Melbourne (CBD),Private,160,144.96284,-37.8109
2013,93,573454,565462,28 Wills Street MELBOURNE 3000,Melbourne (CBD),Residential,115,144.95723,-37.81068
2013,94,105484,105484,296-310 La Trobe Street MELBOURNE 3000,Melbourne (CBD),Commercial,520,144.96037,-37.80998
2013,94,108089,108089,346-376 Queen Street MELBOURNE 3000,Melbourne (CBD),Commercial,146,144.9592,-37.81025
2013,95,105485,105485,224-252 La Trobe Street MELBOURNE 3000,Melbourne (CBD),Commercial,716,144.96228,-37.80966
2013,95,500323,500323,19-37 A'Beckett Street MELBOURNE 3000,Melbourne (CBD),Residential,140,144.96261,-37.80894
2013,101,105111,105111,50-64 Jeffcott Street WEST MELBOURNE 3003,West Melbourne (Residential),Residential,178,144.95161,-37.81157
2013,113,110685,108118,391 Queen Street MELBOURNE 3000,Melbourne (CBD),Commercial,820,144.95695,-37.80762
2013,115,110747,110747,499-511 Swanston Street MELBOURNE 3000,Melbourne (CBD),Private,156,144.96192,-37.80693
2013,115,604779,587480,8 Franklin Street MELBOURNE 3000,Melbourne (CBD),Private,546,144.96209,-37.80729
2013,115,624495,624495,23-39 Therry Street MELBOURNE 3000,Melbourne (CBD),Private,157,144.96103,-37.8071
2013,131,103979,103979,671-701 Flinders Street DOCKLANDS 3005,Docklands,Commercial,699,144.95217,-37.82233
2013,205,104469,104469,114-152 Grattan Street CARLTON 3053,Carlton,Private,460,144.96489,-37.79994
2013,206,101688,101683,96 Grattan Street CARLTON 3053,Carlton,Commercial,600,144.96603,-37.79968
2013,217,106193,106193,368-386 Lygon Street CARLTON 3053,Carlton,Commercial,154,144.96815,-37.79804
2013,241,573377,573377,220 Berkeley Street CARLTON 3053,Carlton,Commercial,1136,,
2013,242,101255,101255,197-235 Bouverie Street CARLTON 3053,Carlton,Private,119,144.96162,-37.80104
2013,250,623345,108266,11 Nicholson Street CARLTON 3053,Carlton,Commercial,848,144.97163,-37.80397
2013,265,559514,559514,470-496 Swanston Street CARLTON 3053,Carlton,Residential,156,144.96354,-37.80558
2013,270,104468,104468,156-292 Grattan Street PARKVILLE 3010,Parkville,Private,648,144.96118,-37.79678
2013,353,103840,103840,163-177 Flemington Road NORTH MELBOURNE 3051,North Melbourne,Residential,159,144.949,-37.79573
2002,1,103974,103974,507-581 Flinders Street MELBOURNE 3000,Melbourne (CBD),Commercial,270,144.95544,-37.82274
2002,12,103998,103998,452-470 Flinders Street MELBOURNE 3000,Melbourne (CBD),Commercial,296,144.95728,-37.8211
2002,13,108060,108060,19-35 Queen Street MELBOURNE 3000,Melbourne (CBD),Private,172,144.96046,-37.81987
2002,18,108977,108977,25-31 Spring Street MELBOURNE 3000,Melbourne (CBD),Residential,111,144.97279,-37.81618
2002,18,111072,111072,32-44 Flinders Street MELBOURNE 3000,Melbourne (CBD),Commercial,532,144.97187,-37.81701
2002,22,110665,110661,459 Collins Street MELBOURNE 3000,Melbourne (CBD),Commercial,175,144.95761,-37.81981
2002,23,102100,102100,433-455 Collins Street MELBOURNE 3000,Melbourne (CBD),Commercial,450,144.95856,-37.81962
2002,24,102089,102089,327-343 Collins Street MELBOURNE 3000,Melbourne (CBD),Commercial,380,144.96195,-37.81869
2002,26,102073,102073,141-165 Collins Street MELBOURNE 3000,Melbourne (CBD),Commercial,350,144.96745,-37.81709
2002,27,102071,102071,121-131 Collins Street MELBOURNE 3000,Melbourne (CBD),Commercial,558,144.96856,-37.81672
2002,31,108968,108968,613-639 Little Collins Street MELBOURNE 3000,Melbourne (CBD),Commercial,300,144.95305,-37.81982
2002,32,102115,102115,522-534 Collins Street MELBOURNE 3000,Melbourne (CBD),Private,348,144.9555,-37.81934
2002,32,102117,102117,500-514 Collins Street MELBOURNE 3000,Melbourne (CBD),Commercial,170,144.95616,-37.81921
2002,34,102133,102133,360-374 Collins Street MELBOURNE 3000,Melbourne (CBD),Commercial,140,144.96086,-37.81781
2002,37,102161,102161,80 Collins Street MELBOURNE 3000,Melbourne (CBD),Commercial,220,144.96937,-37.81527
2002,42,101156,101155,535 Bourke Street MELBOURNE 3000,Melbourne (CBD),Commercial,361,144.9565,-37.818
2002,43,110146,110146,130-148 William Street MELBOURNE 3000,Melbourne (CBD),Private,308,144.95759,-37.81764
2002,48,105969,105969,34-60 Little Collins Street MELBOURNE 3000,Melbourne (CBD),Commercial,960,144.97064,-37.81406
2002,58,103621,103621,174-192 Exhibition Street MELBOURNE 3000,Melbourne (CBD),Commercial,151,144.96932,-37.81287
2002,71,108962,108962,244-276 Spencer Street MELBOURNE 3000,Melbourne (CBD),Private,145,144.95164,-37.81601
2002,74,105737,105737,402-408 Lonsdale Street MELBOURNE 3000,Melbourne (CBD),Private,152,144.95901,-37.81409
2002,74,105741,105741,374-380 Lonsdale Street MELBOURNE 3000,Melbourne (CBD),Commercial,460,144.9598,-37.81366
2002,78,105763,105763,46-54 Lonsdale Street MELBOURNE 3000,Melbourne (CBD),Private,100,144.96975,-37.81078
2002,78,110713,105763,2 Lonsdale Street MELBOURNE 3000,Melbourne (CBD),Private,185,144.96975,-37.81078
2002,82,105460,105460,479-495 La Trobe Street MELBOURNE 3000,Melbourne (CBD),Private,208,144.95361,-37.81433
2002,83,105456,105456,299-319 Queen Street MELBOURNE 3000,Melbourne (CBD),Residential,140,144.95734,-37.81309
2002,85,105745,103309,322 Lonsdale Street MELBOURNE 3000,Melbourne (CBD),Commercial,312,144.96129,-37.81321
2002,85,105746,105746,284-310 Lonsdale Street MELBOURNE 3000,Melbourne (CBD),Private,436,144.96158,-37.81211
2002,94,105484,105484,296-310 La Trobe Street MELBOURNE 3000,Melbourne (CBD),Commercial,520,144.95912,-37.8118
2002,105,103302,103302,422-440 Elizabeth Street MELBOURNE 3000,Melbourne (CBD),Private,120,144.95969,-37.81027
2002,105,104080,104080,83-93 Franklin Street MELBOURNE 3000,Melbourne (CBD),Residential,124,144.96045,-37.80981
2002,131,103977,111287,633-669 Flinders Street DOCKLANDS 3005,Docklands,Private,354,144.95223,-37.82421
2002,131,103978,111287,18-38 Siddeley Street DOCKLANDS 3005,Docklands,Commercial,219,144.95223,-37.82421
2002,204,109359,109359,768-826 Swanston Street CARLTON 3053,Carlton,Private,662,144.96386,-37.79931
2002,205,104469,104469,114-152 Grattan Street CARLTON 3053,Carlton,Private,460,144.96356,-37.80157
2002,233,103164,107153,20 Elgin Street CARLTON 3053,Carlton,Residential,100,144.97267,-37.7989
2002,242,101255,101255,197-235 Bouverie Street CARLTON 3053,Carlton,Private,119,144.9603,-37.80267
2002,250,108266,108266,Nicholson Street CARLTON 3053,Carlton,Commercial,900,144.97032,-37.8056
2002,251,107539,107539,15-31 Pelham Street CARLTON 3053,Carlton,Commercial,113,144.96731,-37.80522
2002,265,109845,109845,110-120 Victoria Street CARLTON 3053,Carlton,Commercial,465,144.96262,-37.8077
2002,271,102054,102054,65 College Crescent PARKVILLE 3052,Parkville,Private,130,144.9581,-37.79678
2002,317,106338,106338,98-110 Macaulay Road NORTH MELBOURNE 3051,North Melbourne,Private,141,144.94133,-37.79929
2002,319,106336,106336,112-166 Macaulay Road NORTH MELBOURNE 3051,North Melbourne,Private,141,144.94035,-37.79846
2002,520,107056,102489,94 Ormond Street KENSINGTON 3031,Kensington,Residential,100,144.92534,-37.79842
2002,607,110002,110002,98-108 Wellington Parade EAST MELBOURNE 3002,East Melbourne,Private,102,144.98546,-37.81783
2002,650,110659,101782,2-20 Lansdowne Street EAST MELBOURNE 3002,East Melbourne,Private,100,144.9756,-37.81192
2002,658,111200,110264,Punt Road JOLIMONT 3002,East Melbourne,Private,100,144.98596,-37.82139
2002,659,100847,100847,Batman Avenue MELBOURNE 3004,Melbourne (Remainder),Private,658,144.97775,-37.82282
2002,720,108626,108626,409-413 St Kilda Road MELBOURNE 3004,Melbourne (Remainder),Private,124,144.97555,-37.839
2002,724,108647,108647,541-543 St Kilda Road PRAHRAN 3181,Melbourne (Remainder),Private,130,144.97874,-37.84771
2002,724,108649,108649,549-551 St Kilda Road PRAHRAN 3181,Melbourne (Remainder),Private,250,144.97898,-37.84823
2002,724,108650,108650,553-555 St Kilda Road PRAHRAN 3181,Melbourne (Remainder),Commercial,170,144.97906,-37.84849
2002,732,110483,110483,127-135 Clarendon Street SOUTHBANK 3006,Southbank,Commercial,225,144.9578,-37.82989
2002,738,110620,110620,102-118 Sturt Street SOUTHBANK 3006,Southbank,Commercial,200,144.96513,-37.82581
2002,738,110621,110621,120-150 Sturt Street SOUTHBANK 3006,Southbank,Residential,144,144.96494,-37.82642
2002,742,110424,110424,12-80 Wells Street SOUTHBANK 3006,Southbank,Residential,108,144.96702,-37.82838
2002,743,110451,110451,62-104 Coventry Street SOUTHBANK 3006,Southbank,Residential,112,144.96659,-37.8308
2002,744,110618,110618,211-229 Sturt Street SOUTHBANK 3006,Southbank,Residential,170,144.96487,-37.83134
2002,746,110438,110437,80 Dorcas Street SOUTHBANK 3006,Southbank,Private,128,144.9649,-37.83233
2002,747,110457,110457,49-75 Coventry Street SOUTHBANK 3006,Southbank,Private,146,144.96708,-37.83175
2002,750,569748,108655,250 St Kilda Road SOUTHBANK 3006,Southbank,Residential,173,144.96879,-37.82724
2002,759,108632,108632,439-445 St Kilda Road MELBOURNE 3004,Melbourne (Remainder),Private,170,144.97636,-37.84113
2002,760,108638,108638,477-479 St Kilda Road MELBOURNE 3004,Melbourne (Remainder),Private,204,144.97724,-37.84352
2002,760,108642,108642,497-503 St Kilda Road MELBOURNE 3004,Melbourne (Remainder),Commercial,365,144.97776,-37.84496
2002,775,110525,110525,850-868 Lorimer Street PORT MELBOURNE 3207,Port Melbourne,Private,101,144.93336,-37.82469
2002,781,110515,110515,674-702 Lorimer Street PORT MELBOURNE 3207,Port Melbourne,Private,140,144.92205,-37.82394
2002,781,110551,110551,67-85 Turner Street PORT MELBOURNE 3207,Port Melbourne,Private,137,144.92406,-37.82498
2002,786,110575,110575,100-118 Todd Road FISHERMANS BEND 3207,Port Melbourne,Private,350,144.91205,-37.83253
2002,790,559302,559302,187 Todd Road FISHERMANS BEND 3207,Port Melbourne,Private,280,144.90924,-37.82803
2002,802,110384,110384,102-156 City Road SOUTHBANK 3006,Southbank,Private,182,144.96163,-37.82457
2002,808,108046,108046,63-85 Queens Bridge Street SOUTHBANK 3006,Southbank,Residential,284,144.96005,-37.82547
2002,811,111373,111373,34-52 Kavanagh Street SOUTHBANK 3006,Southbank,Residential,140,144.9628,-37.8254
2002,812,110415,110415,12-16 Kavanagh Street SOUTHBANK 3006,Southbank,Residential,170,144.96494,-37.82425
2002,906,108505,108505,367-377 Royal Parade PARKVILLE 3052,Parkville,Private,205,144.95725,-37.78657
2002,919,103256,103256,703-721 Elizabeth Street MELBOURNE 3000,Parkville,Private,100,144.95535,-37.80183
2002,931,107427,107427,10 Brens Drive PARKVILLE 3052,Parkville,Private,341,144.94638,-37.78699
2002,931,110273,110273,Elliott Avenue PARKVILLE 3052,Parkville,Private,300,144.95062,-37.78584
2002,1006,104053,104053,470-594 Footscray Road WEST MELBOURNE 3003,West Melbourne (Industrial),Private,2700,144.92264,-37.80825
2002,1101,108845,108845,33-71C Spencer Street DOCKLANDS 3008,Docklands,Residential,102,144.95289,-37.82183
2002,1101,110843,110843,163-235 Spencer Street DOCKLANDS 3008,Docklands,Commercial,150,144.94925,-37.81615
2002,1105,576021,576021,715-743 Bourke Street DOCKLANDS 3008,Docklands,Commercial,300,,
2002,1105,576022,576022,2-46 Batmans Hill Drive DOCKLANDS 3008,Docklands,Commercial,300,,
2002,1108,106983,106983,1-197 Harbour Esplanade DOCKLANDS 3008,Docklands,Commercial,1500,144.93951,-37.82216
2003,1,103974,103974,507-581 Flinders Street MELBOURNE 3000,Melbourne (CBD),Commercial,270,144.95544,-37.82274
2003,11,103957,103957,517-537 Flinders Lane MELBOURNE 3000,Melbourne (CBD),Commercial,109,144.95534,-37.82151
2003,11,103989,103989,532-536 Flinders Street MELBOURNE 3000,Melbourne (CBD),Commercial,133,144.95512,-37.82188
2003,12,103997,103997,472-482 Flinders Street MELBOURNE 3000,Melbourne (CBD),Commercial,310,144.95696,-37.82137
2003,13,104002,104002,376-388 Flinders Street MELBOURNE 3000,Melbourne (CBD),Commercial,315,144.96024,-37.82048
2003,13,108060,108060,19-35 Queen Street MELBOURNE 3000,Melbourne (CBD),Private,172,144.96046,-37.81987
2003,18,108975,108975,1-9 Spring Street MELBOURNE 3000,Melbourne (CBD),Private,308,144.97269,-37.8168
2003,18,111072,111072,32-44 Flinders Street MELBOURNE 3000,Melbourne (CBD),Commercial,532,144.97187,-37.81701
2003,22,110665,110661,459 Collins Street MELBOURNE 3000,Melbourne (CBD),Commercial,175,144.95761,-37.81981
2003,24,102092,102092,359-373 Collins Street MELBOURNE 3000,Melbourne (CBD),Commercial,265,144.96113,-37.81891
2003,25,110857,110857,233-239 Collins Street MELBOURNE 3000,Melbourne (CBD),Commercial,130,144.96479,-37.81763
2003,27,102071,102071,121-131 Collins Street MELBOURNE 3000,Melbourne (CBD),Commercial,558,144.96856,-37.81672
2003,28,102063,102060,45 Collins Street MELBOURNE 3000,Melbourne (CBD),Commercial,552,144.97131,-37.81594
2003,33,102124,102124,430-442 Collins Street MELBOURNE 3000,Melbourne (CBD),Private,105,144.95845,-37.81867
2003,37,102157,102157,90-98 Collins Street MELBOURNE 3000,Melbourne (CBD),Private,118,144.96897,-37.81566
2003,42,101156,101155,535 Bourke Street MELBOURNE 3000,Melbourne (CBD),Commercial,361,144.9565,-37.818
2003,43,110146,110146,130-148 William Street MELBOURNE 3000,Melbourne (CBD),Private,308,144.95759,-37.81764
2003,44,101146,101146,359-385 Bourke Street MELBOURNE 3000,Melbourne (CBD),Commercial,213,144.96161,-37.81657
2003,51,101170,101170,624-634 Bourke Street MELBOURNE 3000,Melbourne (CBD),Private,125,144.95349,-37.8176
2003,52,101173,101173,562-574 Bourke Street MELBOURNE 3000,Melbourne (CBD),Commercial,523,144.95544,-37.81715
2003,54,101187,101187,392-406 Bourke Street MELBOURNE 3000,Melbourne (CBD),Commercial,450,144.96042,-37.81586
2003,56,101204,101204,194-200 Bourke Street MELBOURNE 3000,Melbourne (CBD),Commercial,130,144.96595,-37.81404
2003,68,103620,103620,196-226 Exhibition Street MELBOURNE 3000,Melbourne (CBD),Commercial,249,144.96917,-37.81211
2003,74,105741,105741,374-380 Lonsdale Street MELBOURNE 3000,Melbourne (CBD),Commercial,460,144.9598,-37.81366
2003,78,103618,103618,242-284 Exhibition Street MELBOURNE 3000,Melbourne (CBD),Private,341,144.96866,-37.81105
2003,78,110713,105763,2 Lonsdale Street MELBOURNE 3000,Melbourne (CBD),Private,185,,
2003,81,106029,106029,536-548 Little Lonsdale Street MELBOURNE 3000,Melbourne (CBD),Residential,138,144.95193,-37.81524
2003,81,108958,108958,581-589 La Trobe Street MELBOURNE 3000,Melbourne (CBD),Private,150,144.95056,-37.81501
2003,83,110757,110142,280-318 William Street MELBOURNE 3000,Melbourne (CBD),Commercial,180,144.95604,-37.81373
2003,88,110943,108992,283 Spring Street MELBOURNE 3000,Melbourne (CBD),Residential,233,144.96971,-37.80981
2003,94,108089,108089,346-376 Queen Street MELBOURNE 3000,Melbourne (CBD),Commercial,230,144.95788,-37.81188
2003,97,105491,105491,58-66 La Trobe Street MELBOURNE 3000,Melbourne (CBD),Private,115,144.96563,-37.80993
2003,101,105326,105326,383-405 King Street WEST MELBOURNE 3003,West Melbourne (Residential),Private,108,144.95161,-37.81275
2003,105,103302,103302,422-440 Elizabeth Street MELBOURNE 3000,Melbourne (CBD),Private,120,144.95969,-37.81027
2003,113,110685,108118,391 Queen Street MELBOURNE 3000,Melbourne (CBD),Commercial,800,144.95638,-37.80888
2003,131,103979,103979,671-701 Flinders Street DOCKLANDS 3005,Docklands,Commercial,699,144.95085,-37.82396
2003,131,103977,111287,633-669 Flinders Street DOCKLANDS 3005,Docklands,Private,354,144.95223,-37.82421
2003,207,109553,109553,6-30 Tyne Street CARLTON 3053,Carlton,Commercial,219,144.96537,-37.79931
2003,242,101255,101255,197-235 Bouverie Street CARLTON 3053,Carlton,Private,119,144.9603,-37.80267
2003,250,108266,108266,9-11 Nicholson Street CARLTON 3053,Carlton,Commercial,900,144.97032,-37.8056
2003,260,103271,103271,646-652 Elizabeth Street MELBOURNE 3000,Carlton,Commercial,300,144.95725,-37.80481
2003,265,109845,109845,110-120 Victoria Street CARLTON 3053,Carlton,Commercial,465,144.96262,-37.8077
2003,317,106338,106338,98-110 Macaulay Road NORTH MELBOURNE 3051,North Melbourne,Private,141,144.94133,-37.79929
2003,319,106336,106336,112-166 Macaulay Road NORTH MELBOURNE 3051,North Melbourne,Private,141,144.94035,-37.79846
2003,376,103811,103811,19-35 Flemington Road NORTH MELBOURNE 3051,North Melbourne,Commercial,120,144.95404,-37.8022
2003,443,102953,102953,100-154 Batman Street WEST MELBOURNE 3003,West Melbourne (Residential),Commercial,400,144.94763,-37.81265
2003,503,109449,109449,41-125 Tennyson Street KENSINGTON 3031,Kensington,Private,208,144.92865,-37.80122
2003,570,108810,108810,500 Epsom Road FLEMINGTON 3031,Kensington,Private,6000,144.91154,-37.7907
2003,607,110002,110002,98-108 Wellington Parade EAST MELBOURNE 3002,East Melbourne,Private,102,144.98546,-37.81783
2003,615,102007,102007,126-158 Clarendon Street EAST MELBOURNE 3002,East Melbourne,Private,240,144.98279,-37.81392
2003,621,109655,109655,232-254 Victoria Parade EAST MELBOURNE 3002,East Melbourne,Private,125,144.97856,-37.81082
2003,646,100341,100341,410-418 Albert Street EAST MELBOURNE 3002,East Melbourne,Commercial,324,144.97578,-37.81098
2003,651,565541,101779,2 St Andrews Place EAST MELBOURNE 3002,East Melbourne,Private,125,144.9759,-37.81314
2003,720,108626,108626,409-413 St Kilda Road MELBOURNE 3004,Melbourne (Remainder),Private,124,144.97555,-37.839
2003,724,108647,108647,541-543 St Kilda Road PRAHRAN 3181,Melbourne (Remainder),Private,130,144.97874,-37.84771
2003,724,108650,108650,553-555 St Kilda Road PRAHRAN 3181,Melbourne (Remainder),Commercial,170,144.97906,-37.84849
2003,732,110483,110483,127-135 Clarendon Street SOUTHBANK 3006,Southbank,Commercial,225,144.9578,-37.82989
2003,738,110621,110621,120-150 Sturt Street SOUTHBANK 3006,Southbank,Residential,144,144.96494,-37.82642
2003,742,110424,110424,12-80 Wells Street SOUTHBANK 3006,Southbank,Residential,108,144.96702,-37.82838
2003,742,110425,110425,6-10 Wells Street SOUTHBANK 3006,Southbank,Residential,181,144.96726,-37.8278
2003,743,110451,110451,62-104 Coventry Street SOUTHBANK 3006,Southbank,Residential,112,144.96659,-37.8308
2003,744,110618,110618,211-229 Sturt Street SOUTHBANK 3006,Southbank,Residential,170,144.96487,-37.83134
2003,748,108658,108658,312-318 St Kilda Road SOUTHBANK 3006,Southbank,Commercial,267,144.96937,-37.83073
2003,753,110607,110607,24-26 Southgate Avenue SOUTHBANK 3006,Southbank,Private,160,144.96579,-37.82202
2003,759,108632,108632,439-445 St Kilda Road MELBOURNE 3004,Melbourne (Remainder),Private,170,144.97636,-37.84113
2003,759,108634,108634,455-457 St Kilda Road MELBOURNE 3004,Melbourne (Remainder),Private,114,144.9767,-37.84204
2003,759,108635,108635,459-465 St Kilda Road MELBOURNE 3004,Melbourne (Remainder),Residential,108,144.97684,-37.84244
2003,760,108638,108638,477-479 St Kilda Road MELBOURNE 3004,Melbourne (Remainder),Private,204,144.97724,-37.84352
2003,760,108642,108642,497-503 St Kilda Road MELBOURNE 3004,Melbourne (Remainder),Commercial,365,144.97776,-37.84496
2003,775,110525,110525,850-868 Lorimer Street PORT MELBOURNE 3207,Port Melbourne,Private,101,144.93336,-37.82469
2003,779,110547,110547,50-80 Turner Street PORT MELBOURNE 3207,Port Melbourne,Private,250,144.9241,-37.82621
2003,795,110599,110599,120-178 PORT MELBOURNE 3207,Port Melbourne,Private,120,144.90731,-37.84102
2003,801,110333,110333,12 Riverside Quay SOUTHBANK 3006,Southbank,Private,300,144.96343,-37.82234
2003,801,570659,570659,64-78 City Road SOUTHBANK 3006,Southbank,Commercial,779,144.96381,-37.82339
2003,803,111175,110477,8 Whiteman Street SOUTHBANK 3006,Southbank,Commercial,1800,144.95703,-37.82479
2003,804,110484,110484,2-26 Clarendon Street SOUTHBANK 3006,Southbank,Commercial,1750,144.95243,-37.82719
2003,811,111372,111372,88-98 Southbank Boulevard SOUTHBANK 3006,Southbank,Residential,190,144.96318,-37.8251
2003,870,102178,102178,23-99 Commercial Road PRAHRAN 3181,Melbourne (Remainder),Private,500,144.98149,-37.84823
2003,919,103256,103256,703-721 Elizabeth Street MELBOURNE 3000,Parkville,Private,100,144.95535,-37.80183
2010,441,102956,102956,177-231 Rosslyn Street WEST MELBOURNE 3003,West Melbourne (Residential),Commercial,102,144.94856,-37.81022
2010,570,108810,108810,428-550 Epsom Road FLEMINGTON 3031,Kensington,Private,6000,144.9127,-37.78907
2010,613,593692,109643,189 Powlett Street EAST MELBOURNE 3002,East Melbourne,Residential,162,144.98562,-37.81005
2010,615,102007,102007,126-158 Clarendon Street EAST MELBOURNE 3002,East Melbourne,Residential,112,144.9841,-37.81228
2010,615,102007,102007,126-158 Clarendon Street EAST MELBOURNE 3002,East Melbourne,Private,152,144.9841,-37.81228
2010,618,109996,109996,1-9 Powlett Street EAST MELBOURNE 3002,East Melbourne,Residential,114,144.98483,-37.81609
2010,644,109669,109669,68-88 Victoria Parade EAST MELBOURNE 3002,East Melbourne,Commercial,500,144.97429,-37.80856
2010,646,100341,100341,410-418 Albert Street EAST MELBOURNE 3002,East Melbourne,Commercial,324,144.97709,-37.80934
2010,651,557129,101779,10 St Andrews Place EAST MELBOURNE 3002,East Melbourne,Private,146,144.9774,-37.81152
2010,651,111469,111469,33-61 Cathedral Place EAST MELBOURNE 3002,East Melbourne,Private,522,144.97651,-37.81131
2010,651,111469,111469,33-61 Cathedral Place EAST MELBOURNE 3002,East Melbourne,Commercial,200,144.97651,-37.81131
2010,659,100847,100847,Batman Avenue MELBOURNE 3004,Melbourne (Remainder),Private,782,144.97904,-37.82134
2010,659,614000,100847,Batman Avenue MELBOURNE 3004,Melbourne (Remainder),Private,200,144.97904,-37.82134
2010,660,602280,109256,90 Olympic Boulevard MELBOURNE 3004,Melbourne (Remainder),Commercial,154,144.98246,-37.82485
2010,720,108627,108627,415-421 St Kilda Road MELBOURNE 3004,Melbourne (Remainder),Private,480,144.97704,-37.83775
2010,724,108649,108649,549-551 St Kilda Road MELBOURNE 3004,Melbourne (Remainder),Private,250,144.98028,-37.84659
2010,729,110476,110476,72-82 Haig Street SOUTHBANK 3006,Southbank,Commercial,200,144.95557,-37.82791
2010,734,110465,110465,71-75 Clarke Street SOUTHBANK 3006,Southbank,Commercial,253,144.96035,-37.828
2010,735,110637,110637,31-49 Moray Street SOUTHBANK 3006,Southbank,Commercial,180,144.9614,-37.82762
2010,736,110408,110408,93-119 Kavanagh Street SOUTHBANK 3006,Southbank,Commercial,700,144.96358,-37.8257
2010,738,110621,110621,120-150 Sturt Street SOUTHBANK 3006,Southbank,Residential,144,144.96626,-37.82478
2010,742,110425,110425,6-10 Wells Street SOUTHBANK 3006,Southbank,Residential,181,144.96855,-37.82617
2010,743,110451,110451,62-104 Coventry Street SOUTHBANK 3006,Southbank,Residential,112,144.9679,-37.82916
2010,744,110618,110618,211-229 Sturt Street SOUTHBANK 3006,Southbank,Residential,250,144.96618,-37.82969
2010,750,569749,108655,250 St Kilda Road SOUTHBANK 3006,Southbank,Residential,206,144.9701,-37.82562
2010,753,110379,110380,40 City Road SOUTHBANK 3006,Southbank,Private,257,144.9663,-37.82072
2010,753,110608,110608,28-32 Southgate Avenue SOUTHBANK 3006,Southbank,Residential,108,144.96747,-37.82067
2010,759,108631,108631,435-437 St Kilda Road MELBOURNE 3004,Melbourne (Remainder),Private,101,144.97753,-37.8391
2010,759,108634,108634,455-457 St Kilda Road MELBOURNE 3004,Melbourne (Remainder),Private,114,144.97801,-37.84041
2010,760,108642,108642,497-503 St Kilda Road MELBOURNE 3004,Melbourne (Remainder),Commercial,320,144.97908,-37.84332
2010,772,110528,110528,69-79 Lorimer Street DOCKLANDS 3008,Docklands,Private,202,144.94269,-37.82497
2010,774,110860,110860,351-387 Ingles Street PORT MELBOURNE 3207,Port Melbourne,Private,172,144.93339,-37.82323
2010,775,110525,110525,850-868 Lorimer Street PORT MELBOURNE 3207,Port Melbourne,Private,251,144.93468,-37.82304
2010,781,110551,110551,49-89 Turner Street PORT MELBOURNE 3207,Port Melbourne,Private,383,144.92539,-37.82303
2010,781,110596,110596,272-310 Salmon Street PORT MELBOURNE 3207,Port Melbourne,Commercial,573,144.92172,-37.82182
2010,782,110519,110519,768-798 Lorimer Street PORT MELBOURNE 3207,Port Melbourne,Private,220,144.92887,-37.82258
2010,784,600461,110597,12 Central Boulevard FISHERMANS BEND 3207,Port Melbourne,Private,107,144.91884,-37.82228
2010,790,110504,110504,344-370 Lorimer Street FISHERMANS BEND 3207,Port Melbourne,Private,150,144.91016,-37.82374
2010,790,597228,597228,11-25 Wirraway Drive FISHERMANS BEND 3207,Port Melbourne,Private,184,144.90991,-37.82554
2010,791,110501,110501,224-260 Lorimer Street FISHERMANS BEND 3207,Port Melbourne,Private,900,144.90413,-37.82897
2010,795,110599,110599,120-178 PORT MELBOURNE 3207,Port Melbourne,Private,120,144.90851,-37.83973
2010,801,110325,110325,2 Riverside Quay SOUTHBANK 3006,Southbank,Commercial,560,144.96328,-37.82132
2010,801,570659,570659,64-78 City Road SOUTHBANK 3006,Southbank,Commercial,779,144.96514,-37.82175
2010,802,575820,575820,1-9 Freshwater Place SOUTHBANK 3006,Southbank,Residential,785,144.96218,-37.82172
2010,810,576748,576748,70-92 Kavanagh Street SOUTHBANK 3006,Southbank,Residential,282,144.96305,-37.82469
2010,811,111373,111373,34-52 Kavanagh Street SOUTHBANK 3006,Southbank,Residential,140,144.96411,-37.82376
2010,812,110417,110417,20-22 Kavanagh Street SOUTHBANK 3006,Southbank,Residential,241,144.96583,-37.82281
2010,813,110411,110411,2-6 Kavanagh Street SOUTHBANK 3006,Southbank,Commercial,436,144.96736,-37.82197
2010,920,618951,618951,18-22 Flemington Road PARKVILLE 3050,Parkville,Commercial,950,144.955,-37.79885
2010,929,110950,110950,34-56 Poplar Road PARKVILLE 3052,Parkville,Private,298,144.9479,-37.77803
2010,1006,104053,104053,476-602 Footscray Road WEST MELBOURNE 3003,West Melbourne (Industrial),Private,2700,144.92332,-37.80659
2010,1007,107575,107575,2 Phillipps Road WEST MELBOURNE 3003,West Melbourne (Industrial),Private,197,144.91932,-37.81381
2010,1102,609314,609314,194-206 Harbour Esplanade DOCKLANDS 3008,Docklands,Residential,125,144.94494,-37.81399
2010,1105,598590,598590,720-750 Collins Street DOCKLANDS 3008,Docklands,Commercial,430,144.94933,-37.82
2010,1105,609487,609487,737-743 Bourke Street DOCKLANDS 3008,Docklands,Private,230,144.94907,-37.8192
2010,1108,573414,573414,788-812 Bourke Street DOCKLANDS 3008,Docklands,Private,362,144.94508,-37.81885
2010,1108,604124,604124,816-828 Bourke Street DOCKLANDS 3008,Docklands,Private,135,144.94397,-37.81927
2010,1108,623574,623574,848-868 Bourke Street DOCKLANDS 3008,Docklands,Commercial,100,144.9422,-37.81983
2010,1109,560001,560001,16-32 Rakaia Way DOCKLANDS 3008,Docklands,Residential,250,144.94124,-37.8146
2010,1109,573327,573327,37-43 Caravel Lane DOCKLANDS 3008,Docklands,Residential,250,144.94067,-37.81492
2010,1109,601815,601815,397-407 Docklands Drive DOCKLANDS 3008,Docklands,Commercial,387,144.94021,-37.81429
2010,1110,580075,580075,476-478 Docklands Drive DOCKLANDS 3008,Docklands,Private,350,144.93565,-37.81382
2010,1110,608355,608355,364-378 Docklands Drive DOCKLANDS 3008,Docklands,Commercial,144,144.94187,-37.81286
2010,1110,618853,618853,396-416 Docklands Drive DOCKLANDS 3008,Docklands,Commercial,429,144.94005,-37.81333
2010,1110,618854,618854,380-394 Docklands Drive DOCKLANDS 3008,Docklands,Private,230,144.94109,-37.8131
2010,1112,103980,103980,40-66 Siddeley Street DOCKLANDS 3005,Docklands,Residential,291,144.95248,-37.82288
2010,2385,616892,616892,64-90 Sutton Street NORTH MELBOURNE 3051,North Melbourne,Private,100,144.93764,-37.79163
2011,12,103998,103998,452-470 Flinders Street MELBOURNE 3000,Melbourne (CBD),Commercial,296,144.9586,-37.81947
2011,12,103999,103999,1-13 William Street MELBOURNE 3000,Melbourne (CBD),Private,121,144.95951,-37.81943
2011,13,108060,108060,19-35 Queen Street MELBOURNE 3000,Melbourne (CBD),Private,172,144.96178,-37.81823
2011,17,103592,103592,11-37 Exhibition Street MELBOURNE 3000,Melbourne (CBD),Commercial,200,144.97173,-37.81546
2011,17,103592,103592,11-37 Exhibition Street MELBOURNE 3000,Melbourne (CBD),Private,131,144.97173,-37.81546
2011,17,104025,104025,114-128 Flinders Street MELBOURNE 3000,Melbourne (CBD),Commercial,866,144.97076,-37.81594
2011,18,108975,108975,1-9 Spring Street MELBOURNE 3000,Melbourne (CBD),Private,300,144.97379,-37.81499
2011,21,103960,103960,522-552 Flinders Lane MELBOURNE 3000,Melbourne (CBD),Commercial,1001,144.95592,-37.81943
2011,22,102102,102102,471-485 Collins Street MELBOURNE 3000,Melbourne (CBD),Commercial,598,144.95855,-37.81842
2011,22,102104,102104,505-535 Collins Street MELBOURNE 3000,Melbourne (CBD),Commercial,612,144.95747,-37.81866
2011,24,102092,102092,359-373 Collins Street MELBOURNE 3000,Melbourne (CBD),Commercial,265,144.96244,-37.81728
2011,26,102073,102073,141-165 Collins Street MELBOURNE 3000,Melbourne (CBD),Commercial,350,144.96876,-37.81545
2011,28,103969,103969,12-20 Flinders Lane MELBOURNE 3000,Melbourne (CBD),Commercial,126,144.97357,-37.81424
2011,36,108534,108534,103-107 Russell Street MELBOURNE 3000,Melbourne (CBD),Commercial,233,144.96815,-37.81426
2011,37,102155,102155,106-120 Collins Street MELBOURNE 3000,Melbourne (CBD),Commercial,327,144.96932,-37.814
2011,37,102157,102157,90-98 Collins Street MELBOURNE 3000,Melbourne (CBD),Private,118,144.97029,-37.81402
2011,43,101154,101154,483-501 Bourke Street MELBOURNE 3000,Melbourne (CBD),Private,431,144.95958,-37.81589
2011,43,110147,110147,114-128 William Street MELBOURNE 3000,Melbourne (CBD),Private,103,144.95892,-37.81631
2011,47,625840,103597,111-129 Exhibition Street MELBOURNE 3000,Melbourne (CBD),Private,549,144.97011,-37.81281
2011,48,105969,105969,34-60 Little Collins Street MELBOURNE 3000,Melbourne (CBD),Commercial,932,144.97201,-37.81248
2011,51,101170,101170,624-634 Bourke Street MELBOURNE 3000,Melbourne (CBD),Private,125,144.9548,-37.81597
2011,51,558316,558316,654-670 Bourke Street MELBOURNE 3000,Melbourne (CBD),Residential,300,144.95404,-37.81627
2011,51,566659,566659,182-200 Spencer Street MELBOURNE 3000,Melbourne (CBD),Residential,367,144.9533,-37.81625
2011,52,612820,612820,147-185 William Street MELBOURNE 3000,Melbourne (CBD),Private,450,144.95761,-37.81526
2011,53,101176,101176,494-512 Bourke Street MELBOURNE 3000,Melbourne (CBD),Private,342,144.95877,-37.81494
2011,58,103621,103621,174-192 Exhibition Street MELBOURNE 3000,Melbourne (CBD),Commercial,150,144.9706,-37.81122
2011,62,105862,105862,542-546 Little Bourke Street MELBOURNE 3000,Melbourne (CBD),Commercial,373,144.9564,-37.8148
2011,66,105693,105693,217-231 Lonsdale Street MELBOURNE 3000,Melbourne (CBD),Commercial,390,144.96587,-37.8118
2011,67,108582,108582,210-222 Russell Street MELBOURNE 3000,Melbourne (CBD),Commercial,445,144.96796,-37.81134
2011,68,103620,103620,196-226 Exhibition Street MELBOURNE 3000,Melbourne (CBD),Private,230,144.97048,-37.81047
2011,68,103620,103620,196-226 Exhibition Street MELBOURNE 3000,Melbourne (CBD),Commercial,249,144.97048,-37.81047
2011,71,108962,108962,244-276 Spencer Street MELBOURNE 3000,Melbourne (CBD),Commercial,173,144.95296,-37.81438
2011,72,110708,110707,535 Little Lonsdale Street MELBOURNE 3000,Melbourne (CBD),Commercial,800,144.956,-37.81346
2011,76,589841,105749,221 Little Lonsdale Street MELBOURNE 3000,Melbourne (CBD),Commercial,1150,144.96573,-37.81068
2011,76,589842,105749,10 Artemis Lane MELBOURNE 3000,Melbourne (CBD),Private,218,144.96573,-37.81068
2011,78,110713,580090,2 Lonsdale Street MELBOURNE 3000,Melbourne (CBD),Private,185,144.97141,-37.80904
2011,81,561698,105462,550 Little Lonsdale Street MELBOURNE 3000,Melbourne (CBD),Private,400,144.9527,-37.81331
2011,88,110650,105437,28 Little Lonsdale Street MELBOURNE 3000,Melbourne (CBD),Residential,234,144.97042,-37.80826
2011,88,105438,105438,288-326 Exhibition Street MELBOURNE 3000,Melbourne (CBD),Private,100,144.96966,-37.80849
2011,94,105484,105484,296-310 La Trobe Street MELBOURNE 3000,Melbourne (CBD),Commercial,520,144.96037,-37.80998
2011,95,105485,105485,224-252 La Trobe Street MELBOURNE 3000,Melbourne (CBD),Commercial,716,144.96228,-37.80966
2011,101,105111,105111,50-64 Jeffcott Street WEST MELBOURNE 3003,West Melbourne (Residential),Residential,178,144.95161,-37.81157
2011,105,103302,103302,422-440 Elizabeth Street MELBOURNE 3000,Melbourne (CBD),Private,107,144.96101,-37.80863
2011,204,591507,591507,375 Cardigan Street CARLTON 3053,Carlton,Commercial,715,144.96573,-37.79751
2011,212,102697,102697,473-545 Rathdowne Street CARLTON 3053,Carlton,Residential,345,144.96925,-37.79475
2011,217,106193,106193,368-386 Lygon Street CARLTON 3053,Carlton,Commercial,154,144.96815,-37.79804
2011,218,102675,102675,247-253 Drummond Street CARLTON 3053,Carlton,Commercial,205,144.96781,-37.79982
2011,247,106237,106237,204-218 Lygon Street CARLTON 3053,Carlton,Commercial,408,144.96714,-37.80219
2011,265,109845,109845,110-120 Victoria Street CARLTON 3053,Carlton,Private,235,144.96393,-37.80606
2011,265,559514,559514,470-496 Swanston Street CARLTON 3053,Carlton,Residential,156,144.96354,-37.80558
2011,271,102052,102052,29-55 College Crescent PARKVILLE 3052,Parkville,Private,136,144.96052,-37.79308
2011,271,102054,102054,65 College Crescent PARKVILLE 3052,Parkville,Private,130,144.95942,-37.79514
2011,274,107697,107696,Royal Parade CARLTON NORTH 3054,Carlton,Private,140,144.96153,-37.78498
2011,503,109449,109449,50-60 Lloyd Street KENSINGTON 3031,Kensington,Private,127,144.9299,-37.7996
2011,607,110002,110002,98-108 Wellington Parade EAST MELBOURNE 3002,East Melbourne,Private,102,144.98678,-37.81619
2011,615,102007,102007,126-158 Clarendon Street EAST MELBOURNE 3002,East Melbourne,Residential,112,144.9841,-37.81228
2011,615,102007,102007,126-158 Clarendon Street EAST MELBOURNE 3002,East Melbourne,Private,152,144.9841,-37.81228
2011,618,109996,109996,1-9 Powlett Street EAST MELBOURNE 3002,East Melbourne,Residential,114,144.98483,-37.81609
2011,651,557129,101779,10 St Andrews Place EAST MELBOURNE 3002,East Melbourne,Private,146,144.9774,-37.81152
2011,658,110266,110266,120 Brunton Avenue JOLIMONT 3002,East Melbourne,Private,370,144.98319,-37.82001
2011,659,614000,100847,Batman Avenue MELBOURNE 3004,Melbourne (Remainder),Private,200,144.97904,-37.82134
2011,660,109256,109256,2-100 Olympic Boulevard MELBOURNE 3004,Melbourne (Remainder),Private,287,144.98246,-37.82485
2011,660,602280,109256,90 Olympic Boulevard MELBOURNE 3004,Melbourne (Remainder),Commercial,154,144.98246,-37.82485
2011,720,108629,108629,427-431 St Kilda Road MELBOURNE 3004,Melbourne (Remainder),Residential,126,144.97706,-37.83853
2011,724,108646,108646,519-539 St Kilda Road MELBOURNE 3004,Melbourne (Remainder),Residential,470,144.97987,-37.84556
2011,724,108647,108647,541-543 St Kilda Road MELBOURNE 3004,Melbourne (Remainder),Private,128,144.98006,-37.84607
2011,724,108649,108649,549-551 St Kilda Road MELBOURNE 3004,Melbourne (Remainder),Private,250,144.98028,-37.84659
2011,729,110486,110486,61-67 Whiteman Street SOUTHBANK 3006,Southbank,Residential,345,144.95685,-37.82606
2011,732,110483,110483,127-135 Clarendon Street SOUTHBANK 3006,Southbank,Commercial,204,144.95912,-37.82825
2011,735,110637,110637,31-49 Moray Street SOUTHBANK 3006,Southbank,Commercial,180,144.9614,-37.82762
2011,743,110451,110451,62-104 Coventry Street SOUTHBANK 3006,Southbank,Residential,112,144.9679,-37.82916
2011,746,110438,110437,80 Dorcas Street SOUTHBANK 3006,Southbank,Private,128,144.96623,-37.83069
2011,748,108658,108658,312-318 St Kilda Road SOUTHBANK 3006,Southbank,Commercial,240,144.97069,-37.82909
2011,748,110433,110433,6-8 Dorcas Street SOUTHBANK 3006,Southbank,Residential,221,144.97018,-37.82985
2011,752,110736,110736,130-200 St Kilda Road SOUTHBANK 3006,Southbank,Private,850,144.96863,-37.82274
2011,753,110379,110380,40 City Road SOUTHBANK 3006,Southbank,Private,257,144.9663,-37.82072
2011,759,108632,108632,439-445 St Kilda Road MELBOURNE 3004,Melbourne (Remainder),Private,343,144.97768,-37.83949
2011,760,108636,108636,469-471 St Kilda Road MELBOURNE 3004,Melbourne (Remainder),Residential,231,144.97839,-37.84143
2011,760,108638,108638,477-479 St Kilda Road MELBOURNE 3004,Melbourne (Remainder),Private,204,144.97856,-37.84188
2011,760,108642,108642,497-503 St Kilda Road MELBOURNE 3004,Melbourne (Remainder),Commercial,320,144.97908,-37.84332
2011,760,108644,108644,509-515 St Kilda Road MELBOURNE 3004,Melbourne (Remainder),Private,342,144.97936,-37.8441
2011,773,560261,560261,50-56 Lorimer Street DOCKLANDS 3008,Docklands,Residential,250,144.94748,-37.82484
2011,773,560266,560266,58-70 Lorimer Street DOCKLANDS 3008,Docklands,Residential,384,144.94629,-37.82485
2011,780,110590,110590,158-222 Salmon Street PORT MELBOURNE 3207,Port Melbourne,Private,200,144.92344,-37.82574
2011,784,600460,110597,10 Central Boulevard FISHERMANS BEND 3207,Port Melbourne,Private,118,144.91884,-37.82228
2011,795,110599,110599,120-178 PORT MELBOURNE 3207,Port Melbourne,Private,120,144.90851,-37.83973
2011,801,559161,559161,3-7 Riverside Quay SOUTHBANK 3006,Southbank,Residential,1000,144.96454,-37.82168
2011,801,570659,570659,64-78 City Road SOUTHBANK 3006,Southbank,Commercial,562,144.96514,-37.82175
2011,802,575820,575820,1-9 Freshwater Place SOUTHBANK 3006,Southbank,Residential,515,144.96218,-37.82172
2011,804,110527,110484,15 Convention Centre Place SOUTH WHARF 3006,Southbank,Commercial,1266,144.95232,-37.82543
2011,804,623557,110484,2 Clarendon Street SOUTH WHARF 3006,Southbank,Commercial,1696,144.95232,-37.82543
2011,804,110538,110538,112-168 Normanby Road SOUTH WHARF 3006,Southbank,Commercial,688,144.94992,-37.8268
2011,806,110343,110343,27-45 Whiteman Street SOUTHBANK 3006,Southbank,Commercial,2200,144.95856,-37.82522
2011,808,108046,108046,63-85 Queens Bridge Street SOUTHBANK 3006,Southbank,Residential,325,144.96119,-37.82386
2011,808,110385,110385,174-184 City Road SOUTHBANK 3006,Southbank,Residential,386,144.96192,-37.82384
2011,811,111373,111373,34-52 Kavanagh Street SOUTHBANK 3006,Southbank,Residential,140,144.96411,-37.82376
2011,860,102508,102508,191-201 Domain Road SOUTH YARRA 3141,South Yarra,Residential,107,144.98292,-37.83447
2011,863,108616,108616,321-369 St Kilda Road MELBOURNE 3004,Melbourne (Remainder),Private,200,144.97655,-37.83405
2011,871,108651,108651,567-581 St Kilda Road MELBOURNE 3004,Melbourne (Remainder),Private,192,144.98323,-37.84921
2011,871,108652,108652,583-597 St Kilda Road MELBOURNE 3004,Melbourne (Remainder),Private,100,144.98217,-37.84974
2021,919,103256,103256,Victorian Comprehensive Cancer Centre 301-327 Grattan Street MELBOURNE VIC 3000,Parkville,Commercial,320,144.95667,-37.80019
2021,930,107617,107617,35-37 Poplar Road PARKVILLE VIC 3052,Parkville,Private,169,144.94741,-37.78126
2021,931,107427,107427,State Netball Hockey Centre 10 Brens Drive PARKVILLE VIC 3052,Parkville,Private,341,144.94768,-37.78533
2021,1001,107001,107001,29-79 MacKenzie Road WEST MELBOURNE VIC 3003,West Melbourne (Industrial),Private,130,144.91123,-37.81297
2021,1004,104052,104052,672-692 Footscray Road WEST MELBOURNE VIC 3003,West Melbourne (Industrial),Private,100,144.91094,-37.80569
2021,1006,102993,102993,Pacific National Melbourne Freight Terminal Rear 69-371 Dynon Road WEST MELBOURNE VIC 3003,West Melbourne (Industrial),Private,132,144.9244,-37.80368
2021,1101,108845,108845,Grand Central Apartments 33-71 Spencer Street DOCKLANDS VIC 3008,Docklands,Residential,120,144.9542,-37.82018
2021,1102,588807,588807,208-226 Harbour Esplanade DOCKLANDS VIC 3008,Docklands,Private,324,144.94516,-37.81316
2021,1102,611576,611576,1010 La Trobe Street DOCKLANDS VIC 3008,Docklands,Private,103,144.94538,-37.81455
2021,1103,558180,558180,Marvel Stadium 122-148 Harbour Esplanade DOCKLANDS VIC 3008,Docklands,Private,2500,144.94756,-37.81674
2021,1103,573401,573401,Bourke Junction 700-704 Bourke Street DOCKLANDS VIC 3008,Docklands,Private,147,144.94936,-37.81715
2021,1103,598612,573403,Victoria Point Units 100-108 Harbour Esplanade DOCKLANDS VIC 3008,Docklands,Residential,448,144.94735,-37.81813
2021,1104,598658,576023,The Podium Building 2-24 Waterview Walk DOCKLANDS VIC 3008,Docklands,Commercial,113,144.94799,-37.81938
2021,1105,578096,578096,715-727 Bourke Street DOCKLANDS VIC 3008,Docklands,Commercial,300,144.95025,-37.81866
2021,1105,598590,598590,720-750 Collins Street DOCKLANDS VIC 3008,Docklands,Private,430,144.94933,-37.82
2021,1105,628713,628713,2-12 Batmans Hill Drive DOCKLANDS VIC 3008,Docklands,Private,242,144.95007,-37.82173
2021,1105,628714,628714,733-747 Collins Street DOCKLANDS VIC 3008,Docklands,Private,114,144.9495,-37.82093
2021,1109,584059,584059,The Conder 2-16 Newquay Promenade DOCKLANDS VIC 3008,Docklands,Residential,275,144.94369,-37.81381
2021,1109,593732,593732,6-22 Pearl River Road DOCKLANDS VIC 3008,Docklands,Residential,307,144.93829,-37.81546
2021,1109,678375,593733,15 Doepel Way DOCKLANDS VIC 3008,Docklands,Residential,176,144.93972,-37.81472
2021,1109,678377,593733,421 Docklands Drive DOCKLANDS VIC 3008,Docklands,Residential,220,144.93972,-37.81472
2021,1109,601815,601815,Aquavista 397-407 Docklands Drive DOCKLANDS VIC 3008,Docklands,Commercial,329,144.94021,-37.81429
2021,870,107775,107775,Royal Freemasons Homes Of Victoria 31-75 Moubray Street MELBOURNE VIC 3004,Melbourne (Remainder),Private,124,144.9834,-37.84762
2020,570,108810,108810,Flemington Racecourse 428-514 Epsom Road FLEMINGTON VIC 3031,Kensington,Private,6000,144.9127,-37.78907
2020,607,110002,110002,98-108 Wellington Parade EAST MELBOURNE VIC 3002,East Melbourne,Private,102,144.98678,-37.81619
2020,613,593695,109643,The Albert 158 Albert Street EAST MELBOURNE VIC 3002,East Melbourne,Residential,198,144.98562,-37.81005
2020,613,109645,109645,388-410 Victoria Parade EAST MELBOURNE VIC 3002,East Melbourne,Residential,254,144.98484,-37.80996
2020,614,102005,102005,Epworth Freemasons Hospital 99-129 Albert Street EAST MELBOURNE VIC 3002,East Melbourne,Private,340,144.98419,-37.81107
2020,620,109652,109652,298-336 Victoria Parade EAST MELBOURNE VIC 3002,East Melbourne,Commercial,350,144.98225,-37.80946
2020,644,109669,109669,68-90 Victoria Parade EAST MELBOURNE VIC 3002,East Melbourne,Commercial,500,144.97429,-37.80856
2020,646,100341,100341,410-418 Albert Street EAST MELBOURNE VIC 3002,East Melbourne,Commercial,324,144.97709,-37.80934
2020,649,110742,108974,Parliament House Parliament of Victoria 160 Spring Street EAST MELBOURNE VIC 3002,East Melbourne,Private,172,144.97416,-37.81086
2020,651,557129,101779,10 St Andrews Place EAST MELBOURNE VIC 3002,East Melbourne,Private,146,144.9774,-37.81152
2020,651,565541,101779,2 St Andrews Place EAST MELBOURNE VIC 3002,East Melbourne,Private,118,144.9774,-37.81152
2020,659,100847,100847,Melbourne Park 200 Batman Avenue MELBOURNE VIC 3004,Melbourne (Remainder),Private,273,144.97904,-37.82134
2020,659,614000,100847,Rod Laver Arena Melbourne Park 200 Batman Avenue MELBOURNE VIC 3004,Melbourne (Remainder),Private,200,144.97904,-37.82134
2020,660,602280,109256,Carpark Olympic Park 90 Olympic Boulevard MELBOURNE VIC 3004,Melbourne (Remainder),Commercial,154,144.98246,-37.82485
2020,720,108627,108627,415-421 St Kilda Road MELBOURNE VIC 3004,Melbourne (Remainder),Private,374,144.97704,-37.83775
2020,724,108647,108647,541-543 St Kilda Road MELBOURNE VIC 3004,Melbourne (Remainder),Private,128,144.98006,-37.84607
2020,724,108649,108649,549-551 St Kilda Road MELBOURNE VIC 3004,Melbourne (Remainder),Private,250,144.98028,-37.84659
2020,724,632373,632373,555-563 St Kilda Road MELBOURNE VIC 3004,Melbourne (Remainder),Residential,365,144.98057,-37.84731
2020,729,110347,110347,The Centurion Apartments 81-89 Whiteman Street SOUTHBANK VIC 3006,Southbank,Residential,225,144.95603,-37.82697
2020,729,110486,110486,Vue Grande Apartments 61-67 Whiteman Street SOUTHBANK VIC 3006,Southbank,Residential,345,144.95685,-37.82606
2020,732,110373,110373,The Bank Apartments 269-283 City Road SOUTHBANK VIC 3006,Southbank,Residential,252,144.95903,-37.8273
2020,735,110637,110637,31-49 Moray Street SOUTHBANK VIC 3006,Southbank,Commercial,180,144.9614,-37.82762
2020,740,559375,559375,Mercedes Benz Melbourne 135-149 Kings Way SOUTHBANK VIC 3006,Southbank,Private,143,144.96355,-37.82796
2020,742,110424,110424,12-80 Wells Street SOUTHBANK VIC 3006,Southbank,Residential,108,144.96834,-37.82674
2020,742,110426,110426,90-104 Wells Street SOUTHBANK VIC 3006,Southbank,Residential,163,144.96798,-37.82792
2020,743,110451,110451,62-104 Coventry Street SOUTHBANK VIC 3006,Southbank,Residential,112,144.9679,-37.82916
2020,744,110618,110618,211-229 Sturt Street SOUTHBANK VIC 3006,Southbank,Residential,175,144.96618,-37.82969
2020,750,569749,108655,West Tower 250 St Kilda Road SOUTHBANK VIC 3006,Southbank,Residential,473,144.9701,-37.82562
2020,753,110323,110380,Langham Hotel 1 Southgate Avenue SOUTHBANK VIC 3006,Southbank,Private,100,144.9663,-37.82072
2020,753,110379,110380,Herald And Weekly Times Building 40 City Road SOUTHBANK VIC 3006,Southbank,Private,257,144.9663,-37.82072
2020,753,110607,110607,Quay West Apartments 24-26 Southgate Avenue SOUTHBANK VIC 3006,Southbank,Private,160,144.96711,-37.82038
2020,760,108636,108636,469-471 St Kilda Road MELBOURNE VIC 3004,Melbourne (Remainder),Residential,231,144.97839,-37.84143
2020,760,108638,108638,477-479 St Kilda Road MELBOURNE VIC 3004,Melbourne (Remainder),Private,204,144.97856,-37.84188
2020,760,108642,108642,497-503 St Kilda Road MELBOURNE VIC 3004,Melbourne (Remainder),Residential,307,144.97908,-37.84332
2020,773,560261,560261,50-56 Lorimer Street DOCKLANDS VIC 3008,Docklands,Residential,250,144.94748,-37.82484
2020,774,611377,611377,161-189 Turner Street PORT MELBOURNE VIC 3207,Port Melbourne,Private,109,144.93204,-37.82353
2020,776,691493,691493,111 Lorimer Street DOCKLANDS VIC 3008,Docklands,Private,113,144.93831,-37.82367
2020,779,110587,110587,2-46 Douglas Street PORT MELBOURNE VIC 3207,Port Melbourne,Private,311,144.9257,-37.82602
2020,782,110519,110519,768-798 Lorimer Street PORT MELBOURNE VIC 3207,Port Melbourne,Private,220,144.92887,-37.82258
2020,784,600460,110597,10 Central Boulevard PORT MELBOURNE VIC 3207,Port Melbourne,Private,118,144.91884,-37.82228
2020,786,110575,110575,Melbourne International Karting Complex 1-31 Cook Street PORT MELBOURNE VIC 3207,Port Melbourne,Private,350,144.91338,-37.8309
2020,786,110591,110591,189-219 Salmon Street PORT MELBOURNE VIC 3207,Port Melbourne,Private,1197,144.92048,-37.82477
2020,786,650394,650394,580-600 Lorimer Street PORT MELBOURNE VIC 3207,Port Melbourne,Private,191,144.91638,-37.82255
2020,786,692423,692423,61-65 Cook Street PORT MELBOURNE VIC 3207,Port Melbourne,Private,161,144.91751,-37.82688
2020,789,110577,110577,Herald And Weekly Times Westgate Print Centre 127 Todd Road PORT MELBOURNE VIC 3207,Port Melbourne,Private,260,144.91016,-37.8282
2020,790,559302,559302,187 Todd Road PORT MELBOURNE VIC 3207,Port Melbourne,Private,280,144.91057,-37.82639
2020,790,570827,570827,294-308 Lorimer Street PORT MELBOURNE VIC 3207,Port Melbourne,Private,220,144.90733,-37.82542
2020,790,597228,597228,11-25 Wirraway Drive PORT MELBOURNE VIC 3207,Port Melbourne,Private,184,144.90991,-37.82554
2020,791,110501,110501,Boeing Aerostructures Australia 224-260 Lorimer Street PORT MELBOURNE VIC 3207,Port Melbourne,Private,950,144.90413,-37.82897
2020,795,110495,110495,46-48 Kooringa Way PORT MELBOURNE VIC 3207,Port Melbourne,Private,235,144.90283,-37.84096
2020,795,110598,110598,68-80 Webb Dock Drive PORT MELBOURNE VIC 3207,Port Melbourne,Private,168,144.91266,-37.84514
2020,801,570659,570659,64-78 City Road SOUTHBANK VIC 3006,Southbank,Commercial,667,144.96514,-37.82175
2020,802,613006,613006,28 Freshwater Place SOUTHBANK VIC 3006,Southbank,Commercial,247,144.96229,-37.82267
2020,804,623557,110484,Melbourne Exhibition Centre 2 Clarendon Street SOUTH WHARF VIC 3006,Southbank,Commercial,1696,144.95232,-37.82543
2020,804,630298,110484,South Wharf Office Tower 30 Convention Centre Place SOUTH WHARF VIC 3006,Southbank,Private,121,144.95232,-37.82543
2020,807,108054,108054,1-25 Whiteman Street SOUTHBANK VIC 3006,Southbank,Private,200,144.96002,-37.82398
2020,808,108046,108046,63-85 Queens Bridge Street SOUTHBANK VIC 3006,Southbank,Residential,325,144.96119,-37.82386
2020,810,590043,576746,Melbourne Tower 171-179 City Road SOUTHBANK VIC 3006,Southbank,Residential,352,144.96218,-37.82476
2020,810,590044,576746,City Tower 181-187 City Road SOUTHBANK VIC 3006,Southbank,Residential,360,144.96218,-37.82476
2020,810,576748,576748,Sentinel 70-92 Kavanagh Street SOUTHBANK VIC 3006,Southbank,Residential,282,144.96305,-37.82469
2020,811,110364,110364,141-155 City Road SOUTHBANK VIC 3006,Southbank,Residential,464,144.96325,-37.82376
2020,812,110415,110415,Century Tower Apartments 12-16 Kavanagh Street SOUTHBANK VIC 3006,Southbank,Residential,161,144.96626,-37.82261
2020,813,110411,110411,The Primrose Potter Australian Ballet Centre 2-6 Kavanagh Street SOUTHBANK VIC 3006,Southbank,Commercial,436,144.96736,-37.82197
2020,860,102508,102508,191-201 Domain Road SOUTH YARRA VIC 3141,South Yarra,Residential,107,144.98292,-37.83447
2020,863,108616,108616,Melbourne Grammar School 321-369 St Kilda Road MELBOURNE VIC 3004,Melbourne (Remainder),Private,200,144.97655,-37.83405
2020,869,107776,107776,96-104 Commercial Road SOUTH YARRA VIC 3141,South Yarra,Residential,100,144.98468,-37.84531
2020,870,102178,102178,Alfred Hospital 23-99 Commercial Road PRAHRAN VIC 3181,Melbourne (Remainder),Commercial,1729,144.98282,-37.84657
2020,904,108506,108506,Victorian College Of Pharmacy 381-405 Royal Parade PARKVILLE VIC 3052,Parkville,Private,100,144.95868,-37.78398
2020,920,104437,104437,Royal Melbourne Hospital 300-328 Grattan Street PARKVILLE VIC 3050,Parkville,Commercial,904,144.95634,-37.79863
2020,928,111485,111485,Mental Health Research Institute 143-165 Oak Street PARKVILLE VIC 3052,Parkville,Private,100,144.94211,-37.77856
2020,928,676588,676588,57-63 Galada Avenue PARKVILLE VIC 3052,Parkville,Residential,135,144.93949,-37.7801
2020,1007,107575,107575,2 Phillipps Road WEST MELBOURNE VIC 3003,West Melbourne (Industrial),Private,197,144.91932,-37.81381
2020,1101,108845,108845,Grand Central Apartments 33-71 Spencer Street DOCKLANDS VIC 3008,Docklands,Residential,120,144.9542,-37.82018
2020,1101,108973,108973,Southern Cross Station 85-161 Spencer Street DOCKLANDS VIC 3008,Docklands,Commercial,154,144.95223,-37.81841
2020,1101,110843,110843,Spencer Outlet Centre 163-261 Spencer Street DOCKLANDS VIC 3008,Docklands,Commercial,583,144.95056,-37.81451
2020,1102,611576,611576,1010 La Trobe Street DOCKLANDS VIC 3008,Docklands,Private,103,144.94538,-37.81455
2020,1103,589575,589575,150-170 Harbour Esplanade DOCKLANDS VIC 3008,Docklands,Private,144,144.94594,-37.81581
2020,1104,598658,576023,The Podium Building 2-24 Waterview Walk DOCKLANDS VIC 3008,Docklands,Commercial,113,144.94799,-37.81938
2020,1108,604124,604124,816-828 Bourke Street DOCKLANDS VIC 3008,Docklands,Private,135,144.94397,-37.81927
2020,1109,573205,560004,Sant' Elia 30 Newquay Promenade DOCKLANDS VIC 3008,Docklands,Residential,100,144.94217,-37.81436
2020,1109,573207,560004,The Palladio 15 Caravel Lane DOCKLANDS VIC 3008,Docklands,Residential,150,144.94217,-37.81436
2020,1109,584059,584059,The Conder 2-16 Newquay Promenade DOCKLANDS VIC 3008,Docklands,Residential,275,144.94369,-37.81381
2020,1109,593732,593732,6-22 Pearl River Road DOCKLANDS VIC 3008,Docklands,Residential,308,144.93829,-37.81546
2020,1109,627659,627659,231-245 Harbour Esplanade DOCKLANDS VIC 3008,Docklands,Residential,544,144.943,-37.81355
2020,1110,618853,618853,396-416 Docklands Drive DOCKLANDS VIC 3008,Docklands,Commercial,238,144.94005,-37.81333
2020,2386,616163,616161,12 Sutton Street NORTH MELBOURNE VIC 3051,North Melbourne,Residential,199,144.94095,-37.79163
2021,6,578328,573333,Carpark Federation Square 2 Swanston Street MELBOURNE VIC 3000,Melbourne (CBD),Commercial,450,144.96994,-37.81778
2021,12,103997,103997,472-482 Flinders Street MELBOURNE VIC 3000,Melbourne (CBD),Commercial,330,144.95827,-37.81973
2021,12,103998,103998,452-470 Flinders Street MELBOURNE VIC 3000,Melbourne (CBD),Commercial,296,144.9586,-37.81947
2021,12,103999,103999,The Clarion Gateway Apartments 1-13 William Street MELBOURNE VIC 3000,Melbourne (CBD),Private,109,144.95951,-37.81943
2021,12,110091,110091,15-33 William Street MELBOURNE VIC 3000,Melbourne (CBD),Commercial,300,144.9592,-37.81929
2021,17,103592,103592,11-37 Exhibition Street MELBOURNE VIC 3000,Melbourne (CBD),Commercial,200,144.97173,-37.81546
2021,17,104026,104026,104-112 Flinders Street MELBOURNE VIC 3000,Melbourne (CBD),Residential,171,144.97116,-37.81601
2021,18,111072,111072,32-44 Flinders Street MELBOURNE VIC 3000,Melbourne (CBD),Commercial,532,144.97319,-37.81539
2021,22,102101,110661,MLC Tower (North Tower) 459 Collins Street MELBOURNE VIC 3000,Melbourne (CBD),Commercial,100,144.95892,-37.81817
2021,26,102073,102073,141-165 Collins Street MELBOURNE VIC 3000,Melbourne (CBD),Commercial,350,144.96876,-37.81545
2021,27,102067,102067,89-105 Collins Street MELBOURNE VIC 3000,Melbourne (CBD),Private,377,144.97077,-37.81489
2021,28,102063,102060,Collins Place 45 Collins Street MELBOURNE VIC 3000,Melbourne (CBD),Commercial,552,144.97263,-37.81431
2021,32,102115,102115,522-534 Collins Street MELBOURNE VIC 3000,Melbourne (CBD),Private,350,144.95681,-37.8177
2021,32,102120,102120,464-466 Collins Street MELBOURNE VIC 3000,Melbourne (CBD),Residential,108,144.95859,-37.81746
2021,33,102124,102124,430-442 Collins Street MELBOURNE VIC 3000,Melbourne (CBD),Private,102,144.95976,-37.81703
2021,41,108965,108965,134-160 Spencer Street MELBOURNE VIC 3000,Melbourne (CBD),Residential,127,144.95375,-37.81739
2021,42,101156,101155,535 Bourke Street MELBOURNE VIC 3000,Melbourne (CBD),Private,300,144.95781,-37.81637
2021,43,101154,101154,RACV Building 483-501 Bourke Street MELBOURNE VIC 3000,Melbourne (CBD),Private,431,144.95958,-37.81589
2021,46,105963,105963,Council House 196-212 Little Collins Street MELBOURNE VIC 3000,Melbourne (CBD),Commercial,109,144.96715,-37.8139
2021,52,612820,636824,CGU Tower 181 William Street MELBOURNE VIC 3000,Melbourne (CBD),Private,450,144.95739,-37.81532
2021,56,101204,101204,194-200 Bourke Street MELBOURNE VIC 3000,Melbourne (CBD),Commercial,130,144.96727,-37.81242
2021,57,101219,101219,The Paramount 100-116 Bourke Street MELBOURNE VIC 3000,Melbourne (CBD),Residential,215,144.96976,-37.81173
2021,57,108584,108584,170-190 Russell Street MELBOURNE VIC 3000,Melbourne (CBD),Commercial,409,144.96814,-37.81199
2021,58,103621,103621,174-192 Exhibition Street MELBOURNE VIC 3000,Melbourne (CBD),Commercial,150,144.9706,-37.81122
2021,61,674546,105718,21-39 Rose Lane MELBOURNE VIC 3000,Melbourne (CBD),Residential,246,144.95361,-37.81542
2021,62,105862,105862,542-546 Little Bourke Street MELBOURNE VIC 3000,Melbourne (CBD),Commercial,373,144.9564,-37.8148
2021,71,105719,105719,Melbourne One Apartments 612-620 Lonsdale Street MELBOURNE VIC 3000,Melbourne (CBD),Residential,389,144.95392,-37.81424
2021,72,110708,110707,535 Little Lonsdale Street MELBOURNE VIC 3000,Melbourne (CBD),Commercial,800,144.956,-37.81346
2021,73,559301,559301,458-468 Lonsdale Street MELBOURNE VIC 3000,Melbourne (CBD),Commercial,294,144.95835,-37.81306
2021,77,103607,103607,Regency Towers Apartments 265 Exhibition Street MELBOURNE VIC 3000,Melbourne (CBD),Residential,330,144.96883,-37.80968
2021,78,103618,103618,242-284 Exhibition Street MELBOURNE VIC 3000,Melbourne (CBD),Private,341,144.96998,-37.80942
2021,78,580090,580090,Casselden 2-30 Lonsdale Street MELBOURNE VIC 3000,Melbourne (CBD),Private,185,144.97142,-37.80907
2021,78,603923,580091,The Urban Workshop 32-54 Lonsdale Street MELBOURNE VIC 3000,Melbourne (CBD),Private,278,144.97073,-37.8092
2021,81,108960,108960,Atlantis Hotel & Tower 284-302 Spencer Street MELBOURNE VIC 3000,Melbourne (CBD),Private,107,144.95205,-37.81371
2021,82,105460,105460,479-495 La Trobe Street MELBOURNE VIC 3000,Melbourne (CBD),Commercial,208,144.95492,-37.81271
2021,85,105745,103309,322 Lonsdale Street MELBOURNE VIC 3000,Melbourne (CBD),Commercial,312,144.9626,-37.81158
2021,94,639236,639236,127-141 A'Beckett Street MELBOURNE VIC 3000,Melbourne (CBD),Residential,204,144.95976,-37.80989
2021,97,106368,106368,MacKenzie Tower 27-39 MacKenzie Street MELBOURNE VIC 3000,Melbourne (CBD),Residential,161,144.96695,-37.80781
2021,101,100848,100848,15-31 Batman Street WEST MELBOURNE VIC 3003,West Melbourne (Residential),Residential,212,144.95232,-37.8109
2021,101,105111,105111,Cityside 50-64 Jeffcott Street WEST MELBOURNE VIC 3003,West Melbourne (Residential),Residential,178,144.95161,-37.81157
2021,103,621414,621414,218-236 A'Beckett Street MELBOURNE VIC 3000,Melbourne (CBD),Residential,232,144.9566,-37.81017
2021,115,103293,103293,496-504 Elizabeth Street MELBOURNE VIC 3000,Melbourne (CBD),Residential,156,144.96035,-37.8072
2021,115,104101,104101,58-64 Franklin Street MELBOURNE VIC 3000,Melbourne (CBD),Commercial,360,144.96082,-37.80742
2021,115,604779,587480,Milano Apartments 8 Franklin Street MELBOURNE VIC 3000,Melbourne (CBD),Private,562,144.96209,-37.80729
2021,115,624495,624495,Zen Apartments 23-39 Therry Street MELBOURNE VIC 3000,Melbourne (CBD),Private,157,144.96103,-37.8071
2021,131,103979,103979,Melbourne Convention Centre Carpark 671-701 Flinders Street DOCKLANDS VIC 3008,Docklands,Commercial,736,144.95217,-37.82233
2021,131,103978,111287,18-38 Siddeley Street DOCKLANDS VIC 3008,Docklands,Commercial,290,144.95378,-37.82258
2021,204,591507,591507,MU Eastern Precinct Carpark 375 Cardigan Street CARLTON VIC 3053,Carlton,Commercial,722,144.96573,-37.79751
2021,206,101688,101683,96 Grattan Street CARLTON VIC 3053,Carlton,Commercial,600,144.96603,-37.79968
2021,212,627568,627568,494-516 Drummond Street CARLTON VIC 3053,Carlton,Residential,105,144.97002,-37.79358
2021,212,632536,632536,515-545 Rathdowne Street CARLTON VIC 3053,Carlton,Residential,101,144.97092,-37.793
2021,212,632639,632639,481-495 Rathdowne Street CARLTON VIC 3053,Carlton,Residential,105,144.97068,-37.79418
2021,247,106237,106237,204-218 Lygon Street CARLTON VIC 3053,Carlton,Commercial,408,144.96714,-37.80219
2021,264,644814,644814,156-172 Victoria Street CARLTON VIC 3053,Carlton,Residential,222,144.96194,-37.80615
2021,264,661677,644815,555 Swanston Street CARLTON VIC 3053,Carlton,Residential,220,144.96252,-37.8057
2021,265,107867,107867,139-155 Queensberry Street CARLTON VIC 3053,Carlton,Residential,117,144.96392,-37.80493
2021,265,109845,109845,RMIT Building 91 110-120 Victoria Street CARLTON VIC 3053,Carlton,Private,265,144.9637,-37.80632
2021,265,559514,559514,Arrow On Swanston 470-496 Swanston Street CARLTON VIC 3053,Carlton,Residential,156,144.96354,-37.80558
2021,271,102052,102052,Ormond College 29-55 College Crescent PARKVILLE VIC 3052,Parkville,Private,224,144.96051,-37.79308
2021,319,703218,106292,Arden Plaza & Offices 111-133 Canning Street NORTH MELBOURNE VIC 3051,North Melbourne,Residential,337,144.94069,-37.79624
2021,319,703218,106292,Arden Plaza & Offices 111-133 Canning Street NORTH MELBOURNE VIC 3051,North Melbourne,Commercial,328,144.94069,-37.79624
2021,353,103840,103840,Royal Park Towers 163-177 Flemington Road NORTH MELBOURNE VIC 3051,North Melbourne,Residential,159,144.949,-37.79573
2008,904,108506,108506,381-405 Royal Parade PARKVILLE 3052,Parkville,Private,150,144.95868,-37.78398
2008,906,108505,108505,367-377 Royal Parade PARKVILLE 3052,Parkville,Private,144,144.95856,-37.78493
2008,929,110950,110950,34-56 Poplar Road PARKVILLE 3052,Parkville,Private,279,144.9479,-37.77803
2008,930,107618,107618,39-79 Poplar Road PARKVILLE 3052,Parkville,Private,550,144.94477,-37.78031
2008,931,107427,107427,10 Brens Drive PARKVILLE 3052,Parkville,Private,341,144.94768,-37.78533
2008,1004,104052,104052,672-692 Footscray Road WEST MELBOURNE 3003,West Melbourne (Industrial),Private,100,144.91094,-37.80569
2008,1006,102993,102993,71-385 Dynon Road WEST MELBOURNE 3003,West Melbourne (Industrial),Private,132,144.92405,-37.8035
2008,1007,107575,107575,34-72 Appleton Dock Road WEST MELBOURNE 3003,West Melbourne (Industrial),Private,197,144.91949,-37.81381
2008,1101,108845,108845,33-71C Spencer Street DOCKLANDS 3008,Docklands,Residential,102,144.9542,-37.82018
2008,1102,588807,588807,208-240 Harbour Esplanade DOCKLANDS 3008,Docklands,Commercial,270,144.94553,-37.81348
2008,1102,588807,588807,208-240 Harbour Esplanade DOCKLANDS 3008,Docklands,Private,158,144.94553,-37.81348
2008,1103,558180,558180,122-148 Harbour Esplanade DOCKLANDS 3008,Docklands,Commercial,2200,144.94756,-37.81674
2008,1103,598612,573403,100-108 Harbour Esplanade DOCKLANDS 3008,Docklands,Residential,448,144.94735,-37.81813
2008,1104,598658,576023,2-24 Waterview Walk DOCKLANDS 3008,Docklands,Commercial,113,144.94799,-37.81938
2008,1104,598658,576023,2-24 Waterview Walk DOCKLANDS 3008,Docklands,Residential,331,144.94799,-37.81938
2008,1105,588061,588061,8-18 McCrae Street DOCKLANDS 3008,Docklands,Residential,189,144.95076,-37.82151
2008,1108,106983,106983,847 Bourke Street DOCKLANDS 3008,Docklands,Private,202,144.94047,-37.82055
2008,1108,604124,604124,816-828 Bourke Street DOCKLANDS 3008,Docklands,Private,175,144.94397,-37.81927
2008,1109,573206,560004,5 Caravel Lane DOCKLANDS 3008,Docklands,Residential,225,144.94217,-37.81436
2008,1109,573327,573327,37-43 Caravel Lane DOCKLANDS 3008,Docklands,Residential,250,144.94067,-37.81492
2008,1109,584059,584059,2-16 Newquay Promenade DOCKLANDS 3008,Docklands,Residential,275,144.94369,-37.81381
2008,1109,593736,593736,453-507 Docklands Drive DOCKLANDS 3008,Docklands,Commercial,307,144.93645,-37.81641
2008,1109,601815,601815,397-407 Docklands Drive DOCKLANDS 3008,Docklands,Commercial,284,144.94021,-37.81429
2008,1110,618853,618853,396-416 Docklands Drive DOCKLANDS 3008,Docklands,Commercial,429,144.94005,-37.81333
2009,12,103997,103997,472-482 Flinders Street MELBOURNE 3000,Melbourne (CBD),Commercial,330,144.95827,-37.81973
2009,14,104007,104007,300-316 Flinders Street MELBOURNE 3000,Melbourne (CBD),Commercial,574,144.964,-37.81806
2009,18,108977,108977,25-31 Spring Street MELBOURNE 3000,Melbourne (CBD),Residential,111,144.9741,-37.81455
2009,18,111072,111072,32-44 Flinders Street MELBOURNE 3000,Melbourne (CBD),Commercial,532,144.97319,-37.81539
2009,22,102104,102104,505-535 Collins Street MELBOURNE 3000,Melbourne (CBD),Commercial,612,144.95747,-37.81866
2009,28,102063,102060,45 Collins Street MELBOURNE 3000,Melbourne (CBD),Commercial,552,144.97263,-37.81431
2009,31,108968,108968,613-639 Little Collins Street MELBOURNE 3000,Melbourne (CBD),Commercial,300,144.95436,-37.81818
2009,36,108534,108534,103-107 Russell Street MELBOURNE 3000,Melbourne (CBD),Commercial,233,144.96804,-37.81422
2009,37,102155,102155,106-120 Collins Street MELBOURNE 3000,Melbourne (CBD),Commercial,327,144.96932,-37.814
2009,37,102157,102157,90-98 Collins Street MELBOURNE 3000,Melbourne (CBD),Private,118,144.97029,-37.81402
2009,44,597186,101146,385 Bourke Street MELBOURNE 3000,Melbourne (CBD),Commercial,213,144.96292,-37.81493
2009,48,105969,105969,34-60 Little Collins Street MELBOURNE 3000,Melbourne (CBD),Commercial,932,144.97201,-37.81248
2009,51,101170,101170,624-634 Bourke Street MELBOURNE 3000,Melbourne (CBD),Private,125,144.9548,-37.81597
2009,51,558316,558316,654-670 Bourke Street MELBOURNE 3000,Melbourne (CBD),Residential,300,144.95404,-37.81627
2009,51,566659,566659,182-200 Spencer Street MELBOURNE 3000,Melbourne (CBD),Private,367,144.9533,-37.81625
2009,52,101173,101173,562-574 Bourke Street MELBOURNE 3000,Melbourne (CBD),Commercial,513,144.95676,-37.81551
2009,57,101219,101219,100-116 Bourke Street MELBOURNE 3000,Melbourne (CBD),Residential,215,144.96976,-37.81173
2009,62,105861,105861,548-558 Little Bourke Street MELBOURNE 3000,Melbourne (CBD),Commercial,335,144.95594,-37.81492
2009,64,108102,108102,200-222 Queen Street MELBOURNE 3000,Melbourne (CBD),Commercial,427,144.96047,-37.81346
2009,65,103312,103312,222-260 Elizabeth Street MELBOURNE 3000,Melbourne (CBD),Commercial,205,144.96289,-37.8127
2009,76,589841,105749,221 Little Lonsdale Street MELBOURNE 3000,Melbourne (CBD),Commercial,1150,144.96573,-37.81068
2009,78,103618,103618,242-284 Exhibition Street MELBOURNE 3000,Melbourne (CBD),Private,341,144.96998,-37.80942
2009,78,603923,580091,32-54 Lonsdale Street MELBOURNE 3000,Melbourne (CBD),Private,300,144.97073,-37.8092
2009,81,108961,108961,278-282 Spencer Street MELBOURNE 3000,Melbourne (CBD),Private,150,144.95217,-37.81395
2009,83,105456,105456,299-319 Queen Street MELBOURNE 3000,Melbourne (CBD),Residential,140,144.95866,-37.81145
2009,83,105457,105457,371-389 La Trobe Street MELBOURNE 3000,Melbourne (CBD),Commercial,447,144.95814,-37.81164
2009,85,105745,103309,322 Lonsdale Street MELBOURNE 3000,Melbourne (CBD),Commercial,312,144.9626,-37.81158
2009,85,105746,105746,183-265 La Trobe Street MELBOURNE 3000,Melbourne (CBD),Commercial,722,144.96284,-37.8109
2009,88,110649,105437,33 La Trobe Street MELBOURNE 3000,Melbourne (CBD),Residential,167,144.97042,-37.80826
2009,88,105438,105438,288-326 Exhibition Street MELBOURNE 3000,Melbourne (CBD),Private,100,144.96966,-37.80849
2009,88,110943,108992,283 Spring Street MELBOURNE 3000,Melbourne (CBD),Residential,165,144.97102,-37.80817
2009,93,573454,565462,28 Wills Street MELBOURNE 3000,Melbourne (CBD),Residential,115,144.95723,-37.81068
2009,94,108089,108089,346-376 Queen Street MELBOURNE 3000,Melbourne (CBD),Commercial,146,144.9592,-37.81025
2009,95,105485,105485,224-252 La Trobe Street MELBOURNE 3000,Melbourne (CBD),Commercial,689,144.96228,-37.80966
2009,101,105111,105111,50-64 Jeffcott Street WEST MELBOURNE 3003,West Melbourne (Residential),Residential,178,144.95161,-37.81157
2009,101,105326,105326,383-405 King Street WEST MELBOURNE 3003,West Melbourne (Residential),Private,108,144.95292,-37.81111
2009,104,104084,104084,151-165 Franklin Street MELBOURNE 3000,Melbourne (CBD),Commercial,143,144.95954,-37.80899
2009,115,110747,110747,499-511 Swanston Street MELBOURNE 3000,Melbourne (CBD),Private,156,144.96192,-37.80693
2009,115,604779,587480,8 Franklin Street MELBOURNE 3000,Melbourne (CBD),Private,116,144.96209,-37.80729
2009,131,103978,111287,18-38 Siddeley Street DOCKLANDS 3005,Docklands,Commercial,290,144.95378,-37.82258
2009,204,591507,591507,375 Cardigan Street CARLTON 3053,Carlton,Commercial,715,144.96573,-37.79751
2009,207,109553,109553,6-30 Tyne Street CARLTON 3053,Carlton,Commercial,218,144.96669,-37.79767
2009,217,106193,106193,368-386 Lygon Street CARLTON 3053,Carlton,Commercial,154,144.96815,-37.79804
2009,241,573377,573377,220 Berkeley Street CARLTON 3053,Carlton,Commercial,1136,,
2009,245,581508,538825,640 Swanston Street CARLTON 3053,Carlton,Residential,157,144.96433,-37.8019
2009,263,563935,563935,1-19 Bouverie Street CARLTON 3053,Carlton,Residential,180,144.96109,-37.80609
2009,265,109845,109845,110-120 Victoria Street CARLTON 3053,Carlton,Private,235,144.96393,-37.80606
2009,265,109845,109845,110-120 Victoria Street CARLTON 3053,Carlton,Commercial,465,144.96393,-37.80606
2009,271,102049,102049,871-945 Swanston Street PARKVILLE 3052,Parkville,Private,148,144.96376,-37.79532
2009,375,101095,101095,14-20 Blackwood Street NORTH MELBOURNE 3051,North Melbourne,Commercial,356,144.95516,-37.80175
2009,376,101092,101092,23-35 Blackwood Street NORTH MELBOURNE 3051,North Melbourne,Commercial,108,144.95504,-37.80081
2009,570,103390,103390,390-426 Epsom Road FLEMINGTON 3031,Kensington,Private,150,144.91682,-37.78431
2009,607,110002,110002,98-108 Wellington Parade EAST MELBOURNE 3002,East Melbourne,Private,102,144.98678,-37.81619
2009,613,109645,109645,388-410 Victoria Parade EAST MELBOURNE 3002,East Melbourne,Residential,254,144.98484,-37.80996
2009,618,109996,109996,1-9 Powlett Street EAST MELBOURNE 3002,East Melbourne,Residential,114,144.98483,-37.81609
2009,620,109652,109653,320 Victoria Parade EAST MELBOURNE 3002,East Melbourne,Commercial,350,144.982,-37.80963
2009,720,108627,108627,415-421 St Kilda Road MELBOURNE 3004,Melbourne (Remainder),Private,480,144.97704,-37.83775
2009,724,108649,108649,549-551 St Kilda Road MELBOURNE 3004,Melbourne (Remainder),Private,250,144.98028,-37.84659
2009,729,110346,110346,73-79 Whiteman Street SOUTHBANK 3006,Southbank,Residential,226,144.95635,-37.82664
2009,730,110491,110491,41-55 Haig Street SOUTHBANK 3006,Southbank,Residential,300,144.95738,-37.82721
2009,732,110483,110483,127-135 Clarendon Street SOUTHBANK 3006,Southbank,Commercial,204,144.95912,-37.82825
2009,734,110465,110465,71-75 Clarke Street SOUTHBANK 3006,Southbank,Commercial,253,144.96035,-37.828
2009,735,110637,110637,31-49 Moray Street SOUTHBANK 3006,Southbank,Commercial,180,144.9614,-37.82762
2009,742,110426,110426,90-104 Wells Street SOUTHBANK 3006,Southbank,Residential,163,144.96798,-37.82792
2009,748,110433,110433,6-8 Dorcas Street SOUTHBANK 3006,Southbank,Residential,221,144.97018,-37.82985
2009,750,569749,108655,250 St Kilda Road SOUTHBANK 3006,Southbank,Residential,206,144.9701,-37.82562
2009,753,110606,110380,3 Southgate Avenue SOUTHBANK 3006,Southbank,Commercial,581,144.9663,-37.82072
2009,759,108632,108632,439-445 St Kilda Road MELBOURNE 3004,Melbourne (Remainder),Private,343,144.97768,-37.83949
2009,760,108638,108638,477-479 St Kilda Road MELBOURNE 3004,Melbourne (Remainder),Private,204,144.97856,-37.84188
2009,760,108644,108644,509-515 St Kilda Road MELBOURNE 3004,Melbourne (Remainder),Private,215,144.97936,-37.8441
2009,772,110528,110528,69-79 Lorimer Street DOCKLANDS 3008,Docklands,Private,202,144.94269,-37.82497
2009,773,579362,579362,84-90 Lorimer Street DOCKLANDS 3008,Docklands,Residential,325,144.94389,-37.8246
2009,774,110860,110860,351-387 Ingles Street PORT MELBOURNE 3207,Port Melbourne,Private,172,144.93339,-37.82323
2009,775,110525,110525,850-868 Lorimer Street PORT MELBOURNE 3207,Port Melbourne,Private,120,144.93468,-37.82304
2009,779,110587,110587,2-46 Douglas Street PORT MELBOURNE 3207,Port Melbourne,Private,311,144.9257,-37.82602
2009,780,110590,110590,158-222 Salmon Street PORT MELBOURNE 3207,Port Melbourne,Private,200,144.92344,-37.82574
2009,781,110515,110515,674-702 Lorimer Street PORT MELBOURNE 3207,Port Melbourne,Private,122,144.92338,-37.8223
2009,781,110596,110596,272-310 Salmon Street PORT MELBOURNE 3207,Port Melbourne,Private,125,144.92172,-37.82182
2009,789,110577,110577,127-169 Todd Road FISHERMANS BEND 3207,Port Melbourne,Private,260,144.91016,-37.8282
2009,791,110501,110501,224-260 Lorimer Street FISHERMANS BEND 3207,Port Melbourne,Private,900,144.90413,-37.82897
2009,795,110599,110599,120-178 PORT MELBOURNE 3207,Port Melbourne,Private,120,144.90863,-37.83938
2009,801,570659,570659,64-78 City Road SOUTHBANK 3006,Southbank,Commercial,779,144.96514,-37.82175
2009,802,110384,110384,102-156 City Road SOUTHBANK 3006,Southbank,Private,182,144.96295,-37.82289
2009,804,623557,110484,2-26 Clarendon Street SOUTH WHARF 3006,Southbank,Commercial,1696,144.95378,-37.82556
2009,804,110538,110538,18-32 Munro Street SOUTH WHARF 3006,Southbank,Commercial,700,144.94911,-37.8266
2009,806,110343,110343,27-45 Whiteman Street SOUTHBANK 3006,Southbank,Commercial,2600,144.95856,-37.82522
2009,810,110366,110366,157-165 City Road SOUTHBANK 3006,Southbank,Residential,209,144.96268,-37.82425
2009,811,111373,111373,34-52 Kavanagh Street SOUTHBANK 3006,Southbank,Residential,140,144.96411,-37.82376
2009,812,110415,110415,12-16 Kavanagh Street SOUTHBANK 3006,Southbank,Residential,170,144.96626,-37.82261
2009,870,102178,102178,23-99 Commercial Road MELBOURNE 3004,Melbourne (Remainder),Commercial,1729,144.98282,-37.84657
2009,871,108652,108652,583-597 St Kilda Road MELBOURNE 3004,Melbourne (Remainder),Private,100,144.98217,-37.84974
2009,904,108506,108506,381-405 Royal Parade PARKVILLE 3052,Parkville,Private,150,144.95868,-37.78398
2009,920,618951,618951,18-22 Flemington Road PARKVILLE 3050,Parkville,Commercial,950,,
2009,929,110950,110950,34-56 Poplar Road PARKVILLE 3052,Parkville,Private,279,144.9479,-37.77803
2009,931,103908,103908,50 Flemington Road PARKVILLE 3052,Parkville,Commercial,1050,144.95021,-37.79355
2009,931,110273,110273,Elliott Avenue PARKVILLE 3052,Parkville,Private,300,144.95163,-37.78462
2009,1004,104052,104052,672-692 Footscray Road WEST MELBOURNE 3003,West Melbourne (Industrial),Private,100,144.91094,-37.80569
2009,1006,102993,102993,71-385 Dynon Road WEST MELBOURNE 3003,West Melbourne (Industrial),Private,132,144.92405,-37.8035
2009,1006,104053,104053,476-602 Footscray Road WEST MELBOURNE 3003,West Melbourne (Industrial),Private,2700,144.92378,-37.80659
2009,1006,104051,104055,450-468 Footscray Road WEST MELBOURNE 3003,West Melbourne (Industrial),Private,293,144.93039,-37.80789
2009,1101,110843,110843,163-261 Spencer Street DOCKLANDS 3008,Docklands,Commercial,583,144.95056,-37.81451
2009,1102,611576,611576,1010 La Trobe Street DOCKLANDS 3008,Docklands,Private,103,144.94538,-37.81455
2009,1103,589575,589575,150-170 Harbour Esplanade DOCKLANDS 3008,Docklands,Private,144,144.94594,-37.81581
2009,1105,578095,578095,694-704 Collins Street DOCKLANDS 3008,Docklands,Commercial,265,144.95086,-37.81949
2009,1105,578096,578096,715-727 Bourke Street DOCKLANDS 3008,Docklands,Private,171,144.95027,-37.81866
2009,1105,578096,578096,715-727 Bourke Street DOCKLANDS 3008,Docklands,Commercial,300,144.95027,-37.81866
2009,1105,588061,588061,8-18 McCrae Street DOCKLANDS 3008,Docklands,Residential,189,144.95076,-37.82151
2009,1108,609481,609481,2-6 Seafarer Lane DOCKLANDS 3008,Docklands,Commercial,107,144.94433,-37.82067
2009,1108,611367,611367,791-847 Collins Street DOCKLANDS 3008,Docklands,Private,400,144.94564,-37.82192
2009,1108,623574,623574,848-868 Bourke Street DOCKLANDS 3008,Docklands,Commercial,100,,
2009,1109,573207,560004,15 Caravel Lane DOCKLANDS 3008,Docklands,Residential,150,144.94217,-37.81436
2009,1109,573327,573327,37-43 Caravel Lane DOCKLANDS 3008,Docklands,Residential,250,144.94067,-37.81492
2009,1109,601815,601815,397-407 Docklands Drive DOCKLANDS 3008,Docklands,Commercial,387,144.94021,-37.81429
2009,1110,593729,593729,82-94 Waterfront Way DOCKLANDS 3008,Docklands,Commercial,2203,144.93927,-37.81234
2009,1110,620308,593737,432-446 Docklands Drive DOCKLANDS 3008,Docklands,Residential,163,144.93785,-37.81338
2009,1110,608355,608355,364-378 Docklands Drive DOCKLANDS 3008,Docklands,Commercial,144,144.94187,-37.81286
2009,1110,618853,618853,396-416 Docklands Drive DOCKLANDS 3008,Docklands,Commercial,429,144.94005,-37.81333
2009,1112,103980,103980,40-66 Siddeley Street DOCKLANDS 3005,Docklands,Residential,291,144.95248,-37.82288
2009,2386,616163,616161,12 Sutton Street NORTH MELBOURNE 3051,North Melbourne,Residential,199,144.94095,-37.79163
2010,6,578328,573333,2 Swanston Street MELBOURNE 3000,Melbourne (CBD),Commercial,450,144.96994,-37.81778
2010,11,103987,103987,550-554 Flinders Street MELBOURNE 3000,Melbourne (CBD),Residential,152,144.95597,-37.8204
2010,12,103998,103998,452-470 Flinders Street MELBOURNE 3000,Melbourne (CBD),Commercial,296,144.9586,-37.81947
2010,13,108060,108060,19-35 Queen Street MELBOURNE 3000,Melbourne (CBD),Private,172,144.96178,-37.81823
2010,14,101099,101099,16-26 Bond Street MELBOURNE 3000,Melbourne (CBD),Commercial,461,144.96306,-37.81815
2010,14,104007,104007,300-316 Flinders Street MELBOURNE 3000,Melbourne (CBD),Commercial,574,144.964,-37.81806
2010,17,104025,104025,114-128 Flinders Street MELBOURNE 3000,Melbourne (CBD),Commercial,864,144.97076,-37.81594
2010,21,102106,102106,589-605 Collins Street MELBOURNE 3000,Melbourne (CBD),Private,154,144.95521,-37.81937
2010,21,103960,103960,522-552 Flinders Lane MELBOURNE 3000,Melbourne (CBD),Commercial,1001,144.95592,-37.81943
2010,22,102101,110661,459 Collins Street MELBOURNE 3000,Melbourne (CBD),Commercial,100,144.95892,-37.81817
2010,24,102089,102089,327-343 Collins Street MELBOURNE 3000,Melbourne (CBD),Commercial,423,144.96327,-37.81705
2010,24,102092,102092,359-373 Collins Street MELBOURNE 3000,Melbourne (CBD),Commercial,265,144.96244,-37.81728
2010,27,102067,102067,89-105 Collins Street MELBOURNE 3000,Melbourne (CBD),Private,414,144.97077,-37.81489
2010,27,597183,102071,121-131 Collins Street MELBOURNE 3000,Melbourne (CBD),Commercial,558,144.96981,-37.81512
2010,28,103969,103969,12-20 Flinders Lane MELBOURNE 3000,Melbourne (CBD),Commercial,126,144.97357,-37.81424
2010,33,102124,102124,430-442 Collins Street MELBOURNE 3000,Melbourne (CBD),Private,100,144.95976,-37.81703
2010,43,110147,110147,114-128 William Street MELBOURNE 3000,Melbourne (CBD),Private,103,144.95892,-37.81631
2010,47,602997,103597,113-149 Exhibition Street MELBOURNE 3000,Melbourne (CBD),Commercial,951,144.97011,-37.81281
2010,51,101170,101170,624-634 Bourke Street MELBOURNE 3000,Melbourne (CBD),Private,125,144.9548,-37.81597
2010,51,558316,558316,654-670 Bourke Street MELBOURNE 3000,Melbourne (CBD),Residential,300,144.95404,-37.81627
2010,52,101173,101173,562-574 Bourke Street MELBOURNE 3000,Melbourne (CBD),Commercial,513,144.95676,-37.81551
2010,52,612820,612820,147-185 William Street MELBOURNE 3000,Melbourne (CBD),Private,450,144.95761,-37.81525
2010,53,101176,101176,494-512 Bourke Street MELBOURNE 3000,Melbourne (CBD),Private,342,144.95877,-37.81494
2010,57,101219,101219,100-116 Bourke Street MELBOURNE 3000,Melbourne (CBD),Commercial,418,144.96976,-37.81173
2010,64,108102,108102,200-222 Queen Street MELBOURNE 3000,Melbourne (CBD),Commercial,427,144.96047,-37.81346
2010,65,103312,103312,222-260 Elizabeth Street MELBOURNE 3000,Melbourne (CBD),Commercial,205,144.96289,-37.8127
2010,68,103620,103620,196-226 Exhibition Street MELBOURNE 3000,Melbourne (CBD),Commercial,479,144.97048,-37.81047
2010,73,559301,559301,458-468 Lonsdale Street MELBOURNE 3000,Melbourne (CBD),Commercial,294,144.95835,-37.81306
2010,78,103618,103618,242-284 Exhibition Street MELBOURNE 3000,Melbourne (CBD),Private,341,144.96998,-37.80942
2010,78,603923,580091,32-54 Lonsdale Street MELBOURNE 3000,Melbourne (CBD),Private,300,144.97073,-37.8092
2010,81,561698,105462,550 Little Lonsdale Street MELBOURNE 3000,Melbourne (CBD),Private,400,144.9527,-37.81331
2010,81,108961,108961,278-282 Spencer Street MELBOURNE 3000,Melbourne (CBD),Residential,144,144.95217,-37.81395
2010,83,105456,105456,299-319 Queen Street MELBOURNE 3000,Melbourne (CBD),Residential,140,144.95866,-37.81145
2010,83,105457,105457,371-389 La Trobe Street MELBOURNE 3000,Melbourne (CBD),Commercial,447,144.95814,-37.81164
2010,85,105746,105746,183-265 La Trobe Street MELBOURNE 3000,Melbourne (CBD),Private,160,144.96284,-37.8109
2010,91,105104,105104,19-41 Jeffcott Street WEST MELBOURNE 3003,West Melbourne (Residential),Residential,136,144.95275,-37.81217
2010,93,105477,105477,378-392 La Trobe Street MELBOURNE 3000,Melbourne (CBD),Commercial,255,144.95805,-37.81091
2010,94,105484,105484,296-310 La Trobe Street MELBOURNE 3000,Melbourne (CBD),Commercial,520,144.96037,-37.80998
2010,101,105111,105111,50-64 Jeffcott Street WEST MELBOURNE 3003,West Melbourne (Residential),Residential,178,144.95161,-37.81157
2010,104,104084,104084,151-165 Franklin Street MELBOURNE 3000,Melbourne (CBD),Commercial,143,144.95954,-37.80899
2010,105,100172,100172,24-46 A'Beckett Street MELBOURNE 3000,Melbourne (CBD),Commercial,147,144.96204,-37.80857
2010,113,110685,108118,391 Queen Street MELBOURNE 3000,Melbourne (CBD),Commercial,820,144.95695,-37.80762
2010,115,604779,587480,8 Franklin Street MELBOURNE 3000,Melbourne (CBD),Private,116,144.96209,-37.80729
2010,131,103977,111287,633-669 Flinders Street DOCKLANDS 3005,Docklands,Private,354,144.95378,-37.82258
2010,217,106193,106193,368-386 Lygon Street CARLTON 3053,Carlton,Commercial,154,144.96815,-37.79804
2010,241,573377,573377,220 Berkeley Street CARLTON 3053,Carlton,Commercial,1136,144.9607,-37.80025
2010,250,623345,108266,11 Nicholson Street CARLTON 3053,Carlton,Commercial,848,144.97163,-37.80397
2010,265,559514,559514,470-496 Swanston Street CARLTON 3053,Carlton,Residential,156,144.96354,-37.80558
2010,271,102052,102052,29-55 College Crescent PARKVILLE 3052,Parkville,Private,136,144.96052,-37.79308
2010,271,102054,102054,65 College Crescent PARKVILLE 3052,Parkville,Private,130,144.95942,-37.79514
2010,376,103811,103811,19-35 Flemington Road NORTH MELBOURNE 3051,North Melbourne,Commercial,144,144.95536,-37.80056
2011,929,107424,107424,866-934 Park Street PARKVILLE 3052,Parkville,Private,133,144.94505,-37.77749
2011,929,110950,110950,34-56 Poplar Road PARKVILLE 3052,Parkville,Private,298,144.9479,-37.77803
2011,931,103908,103908,50-52 Flemington Road PARKVILLE 3052,Parkville,Commercial,1050,144.95021,-37.79355
2011,1001,107001,107001,29-79 MacKenzie Road WEST MELBOURNE 3003,West Melbourne (Industrial),Private,130,144.90963,-37.81456
2011,1101,108845,108845,33-71C Spencer Street DOCKLANDS 3008,Docklands,Residential,102,144.9542,-37.82018
2011,1102,588807,588807,208-240 Harbour Esplanade DOCKLANDS 3008,Docklands,Commercial,300,144.94513,-37.81316
2011,1102,609314,609314,194-206 Harbour Esplanade DOCKLANDS 3008,Docklands,Residential,125,144.94494,-37.81399
2011,1102,611576,611576,1010 La Trobe Street DOCKLANDS 3008,Docklands,Private,103,144.94538,-37.81455
2011,1103,558180,558180,122-148 Harbour Esplanade DOCKLANDS 3008,Docklands,Private,2500,144.94756,-37.81674
2011,1103,598612,573403,100-108 Harbour Esplanade DOCKLANDS 3008,Docklands,Residential,448,144.94735,-37.81813
2011,1104,598658,576023,2-24 Waterview Walk DOCKLANDS 3008,Docklands,Commercial,113,144.94799,-37.81938
2011,1105,578096,578096,715-727 Bourke Street DOCKLANDS 3008,Docklands,Private,171,144.95025,-37.81866
2011,1105,578096,578096,715-727 Bourke Street DOCKLANDS 3008,Docklands,Commercial,300,144.95025,-37.81866
2011,1105,598590,598590,720-750 Collins Street DOCKLANDS 3008,Docklands,Commercial,430,144.94933,-37.82
2011,1108,604119,604119,41-55 Victoria Harbour Promenade DOCKLANDS 3008,Docklands,Residential,254,144.94292,-37.81935
2011,1108,604124,604124,816-828 Bourke Street DOCKLANDS 3008,Docklands,Private,135,144.94397,-37.81927
2011,1109,560004,560004,24-42 Newquay Promenade DOCKLANDS 3008,Docklands,Residential,200,144.94217,-37.81436
2011,1109,573207,560004,15 Caravel Lane DOCKLANDS 3008,Docklands,Residential,150,144.94217,-37.81436
2011,1109,601815,601815,397-407 Docklands Drive DOCKLANDS 3008,Docklands,Commercial,387,144.94021,-37.81429
2011,1110,593729,593729,82-94 Waterfront Way DOCKLANDS 3008,Docklands,Commercial,2203,144.93927,-37.81234
2011,1110,620312,593737,23-37 Star Crescent DOCKLANDS 3008,Docklands,Commercial,718,144.93785,-37.81338
2011,1110,618853,618853,396-416 Docklands Drive DOCKLANDS 3008,Docklands,Commercial,429,144.94005,-37.81333
2011,2385,616892,616892,64-90 Sutton Street NORTH MELBOURNE 3051,North Melbourne,Private,100,144.93764,-37.79163
2012,1,611394,611394,545-557 Flinders Street MELBOURNE 3000,Melbourne (CBD),Residential,202,144.95651,-37.82098
2012,12,103998,103998,452-470 Flinders Street MELBOURNE 3000,Melbourne (CBD),Commercial,296,144.9586,-37.81947
2012,12,103999,103999,1-13 William Street MELBOURNE 3000,Melbourne (CBD),Private,121,144.95951,-37.81943
2012,12,110091,110091,15-33 William Street MELBOURNE 3000,Melbourne (CBD),Commercial,300,144.9592,-37.81929
